lat,lon,name,amenity,category,neighbourhood
49.260812,-123.125736,Starbucks,cafe,food/drink,Fairview
49.260953,-123.125704,Salad Loop,fast_food,food/drink,Fairview
49.264041399999996,-123.1534072,Shell,fuel,cars,Kitsilano
49.2831924,-123.1090499,The Cambie,pub,food/drink,Downtown
49.2692701,-123.0570393,Petro-Canada,fuel,cars,Grandview-Woodland
49.2691285,-123.0561052,,fuel,cars,Hastings-Sunrise
49.2811586,-123.0767324,Korean Community Centre,community_centre,arts/culture,Grandview-Woodland
49.2347493,-123.1547249,McDonald's,fast_food,food/drink,Shaughnessy
49.2819978,-123.1243463,Scotiabank Theatre Vancouver,cinema,arts/culture,Downtown
49.2805037,-123.1068723,Cineplex Odeon International Village Cinemas,theatre,arts/culture,Downtown
49.2635825,-123.1288364,Waves,cafe,food/drink,Fairview
49.2195944,-123.0668488,VPL Fraserview Branch,library,arts/culture,Victoria-Fraserview
49.2325006,-123.0773431,Shell,fuel,cars,Sunset
49.2022069,-123.1341593,Wicked Camper Van,car_rental,cars,Marpole
49.268662,-123.1045109,Faculty Brewing,bar,food/drink,Mount Pleasant
49.2729177,-123.1540262,,car_sharing,cars,Kitsilano
49.2729146,-123.1539774,,car_sharing,cars,Kitsilano
49.2685718,-123.1045263,Argo Cafe,cafe,food/drink,Mount Pleasant
49.2672519,-123.1033949,R & B Ale & Pizza House,pub,food/drink,Mount Pleasant
49.2665754,-123.103744,Peaceful Restaurant,restaurant,food/drink,Mount Pleasant
49.2792244,-123.0995102,UBC Learning Exchange,university,education/childcare,Strathcona
49.281302,-123.0575579,Tacofino Commissary,restaurant,food/drink,Grandview-Woodland
49.2812984,-123.0573443,Miyako Sushi,restaurant,food/drink,Grandview-Woodland
49.2812866,-123.0550913,What's Up? Hot Dog!,restaurant,food/drink,Hastings-Sunrise
49.2821554,-123.0998393,Waves Coffee,cafe,food/drink,Downtown
49.2832655,-123.0978958,St Lawrence Restaurant,restaurant,food/drink,Strathcona
49.2832876,-123.0980745,Cuhillo,restaurant,food/drink,Strathcona
49.2831728,-123.0935162,The Uncommon Cafe,cafe,food/drink,Strathcona
49.2793798,-123.0994827,Vancity,bank,money,Strathcona
49.2796054,-123.1002799,Juniper,restaurant,food/drink,Downtown
49.2796207,-123.1011093,Gold Stone Bakery & Restaurant,restaurant,food/drink,Downtown
49.2821955,-123.1024011,Back and Forth Bar,bar,food/drink,Downtown
49.2831638,-123.1035309,The Sardine Can,restaurant,food/drink,Downtown
49.2836044,-123.1036863,Soft Peaks Ice Cream,ice_cream,food/drink,Downtown
49.284169,-123.1073434,131 Water Kitchen & Bar,bar,food/drink,Downtown
49.2834234,-123.1064112,Jules Bistro,restaurant,food/drink,Downtown
49.2731066,-123.1007271,Tim Hortons,cafe,food/drink,Downtown
49.2873953,-123.1288386,JoongWon,restaurant,food/drink,West End
49.2866244,-123.1282577,Chongqing on Robson,fast_food,food/drink,West End
49.287665,-123.1292506,Stepho's,restaurant,food/drink,West End
49.2867409,-123.1284213,A Taste of India,fast_food,food/drink,West End
49.2875709,-123.1291089,Hon's Wun-Tun House,restaurant,food/drink,West End
49.2873728,-123.1282271,miss KOREAN BBQ,restaurant,food/drink,West End
49.2871553,-123.1290789,Forage,restaurant,food/drink,West End
49.2870445,-123.128902,Timber,restaurant,food/drink,West End
49.2874858,-123.1289807,Miko Sushi,restaurant,food/drink,West End
49.2875631,-123.129718,Cora,restaurant,food/drink,West End
49.2866006,-123.1282087,Chatime,cafe,food/drink,West End
49.2865615,-123.1281828,Pok'e Time,fast_food,food/drink,West End
49.2864194,-123.1272344,Abode,cafe,food/drink,West End
49.2866559,-123.1274985,Shenanigans,pub,food/drink,West End
49.2623529,-123.0894813,Hail Mary's,restaurant,food/drink,Mount Pleasant
49.2687109,-123.1186399,The Wicklow Pub,pub,food/drink,Fairview
49.2821452,-123.0762115,Callister Tasting Room,bar,food/drink,Grandview-Woodland
49.2833626,-123.0757512,Powell Brewery Tasting Room,bar,food/drink,Grandview-Woodland
49.2724958,-123.0777288,Strange Fellows Tasting Room,bar,food/drink,Strathcona
49.2832538,-123.1231985,,atm,money,West End
49.2821191,-123.1336624,Ramen Koika,restaurant,food/drink,West End
49.2814778,-123.1336029,Exile,cafe,food/drink,West End
49.2094419,-123.1161616,Dublin Crossing Irish Pub,pub,food/drink,Marpole
49.2873431,-123.1143935,Starbucks,cafe,food/drink,Downtown
49.2842686,-123.1197597,Smokehouse Sandwich Co,fast_food,food/drink,Downtown
49.2469499,-123.1854198,Vancity,bank,money,Dunbar-Southlands
49.2348961,-123.1699097,123 Kerrisdale Dental Centre,dentist,healthcare,Arbutus Ridge
49.2387806,-123.0316319,Tim Hortons,cafe,food/drink,Renfrew-Collingwood
49.2641324,-123.1816701,Essentia Cafe,cafe,food/drink,Kitsilano
49.2643451,-123.1757208,Deacon's Corner,restaurant,food/drink,Kitsilano
49.2330575,-123.0900907,Atlas Animal Hospital,veterinary,healthcare,Kensington-Cedar Cottage
49.2686141,-123.158778,Starbucks,cafe,food/drink,Kitsilano
49.2863279,-123.1256179,Kirin Mandarin Restaurant,restaurant,food/drink,West End
49.285993500000004,-123.1250868,Pink Elephant Thai,restaurant,food/drink,West End
49.285902899999996,-123.1249177,Tim Hortons,cafe,food/drink,West End
49.2860548,-123.1251718,A&W,fast_food,food/drink,West End
49.2860886,-123.1252316,Subway,fast_food,food/drink,West End
49.28525,-123.1254062,Fantacity Karaoke,restaurant,food/drink,West End
49.2876133,-123.1149238,Starbucks,cafe,food/drink,Downtown
49.2822713,-123.1074988,,atm,money,Downtown
49.2637356,-123.1555554,BlueShore Financial,bank,money,Kitsilano
49.2638164,-123.1382617,,atm,money,Fairview
49.2655112,-123.1382614,,atm,money,Fairview
49.2863418,-123.1215195,,atm,money,Downtown
49.2623612,-123.1133849,,car_sharing,cars,Mount Pleasant
49.262368,-123.1139533,,car_sharing,cars,Mount Pleasant
49.2606351,-123.1133584,,car_sharing,cars,Mount Pleasant
49.2623633,-123.1135048,,car_sharing,cars,Mount Pleasant
49.2842068,-123.1002041,Alibi Room,pub,food/drink,Downtown
49.2633356,-123.1144174,A&W,fast_food,food/drink,Mount Pleasant
49.2633407,-123.114038,Coast Capital Savings CU,bank,money,Mount Pleasant
49.2630977,-123.1172998,Elysian Coffee Roasters,cafe,food/drink,Fairview
49.212995,-123.1401,Starbucks,cafe,food/drink,Marpole
49.2625252,-123.1943817,Point Grey Inter-Mennonite Fellowship (PGIMF),place_of_worship,arts/culture,West Point Grey
49.2643899,-123.0695091,Cabrito - Tapas Bebidas,restaurant,food/drink,Grandview-Woodland
49.2888774,-123.1214724,ILAC,school,education/childcare,Downtown
49.2848652,-123.125665,Spicy 6,restaurant,food/drink,West End
49.2492264,-123.1007752,Caffe Artigiano,cafe,food/drink,Riley Park
49.2500121,-123.1008107,French Table Bistro,restaurant,food/drink,Riley Park
49.2263027,-123.1287342,,atm,money,Oakridge
49.2802067,-123.099978,Golden Garden Vietnamese Cuisine,restaurant,food/drink,Downtown
49.2498744,-123.1007808,Old Bird,restaurant,food/drink,Riley Park
49.2797553,-123.0999341,Virtuous Pie,restaurant,food/drink,Downtown
49.280147,-123.0999031,Corning Drugs,pharmacy,healthcare,Downtown
49.2796195,-123.0999337,Starbucks,cafe,food/drink,Downtown
49.2800474,-123.1000247,Pharmatrust Pharmacy,pharmacy,healthcare,Downtown
49.2262222,-123.1287693,Tim Hortons,fast_food,food/drink,Oakridge
49.2452109,-123.101511,East is East - Main St,restaurant,food/drink,Riley Park
49.2327522,-123.1172852,Blenz,cafe,food/drink,Oakridge
49.279922,-123.0999324,Lo Cost Western Pharmacy,pharmacy,healthcare,Downtown
49.2890376,-123.1320221,Liuyishou Hotpot Robson,restaurant,food/drink,West End
49.2792232,-123.1168269,Gong Cha,cafe,food/drink,Downtown
49.2766268,-123.1001058,Pizza Farina,restaurant,food/drink,Downtown
49.2743218,-123.1269429,Kaide Sushi Bar,restaurant,food/drink,Downtown
49.2909348,-123.1360437,Sushiholic,restaurant,food/drink,West End
49.265853,-123.2114567,Allan Kardec Vancouver Society,place_of_worship,arts/culture,West Point Grey
49.2812722,-123.0472413,Le Petit Saigon,restaurant,food/drink,Hastings-Sunrise
49.2725297,-123.0562043,Panago Pizza,fast_food,food/drink,Hastings-Sunrise
49.2812284,-123.12038,Charlie's currency exchange,bureau_de_change,money,Downtown
49.2687359,-123.0456329,1st Ave Dental Group,dentist,healthcare,Hastings-Sunrise
49.2687365,-123.0457293,Fuku Ramen,restaurant,food/drink,Hastings-Sunrise
49.2687481,-123.0460362,Pharmasave Health Centre,pharmacy,healthcare,Hastings-Sunrise
49.2827166,-123.1048014,Tacofino,restaurant,food/drink,Downtown
49.2813057,-123.1079703,Mirai Sushi,restaurant,food/drink,Downtown
49.2640395,-123.1801008,Green Leaf Sushi,restaurant,food/drink,Kitsilano
49.2822371,-123.1310338,,community_centre,arts/culture,West End
49.2567827,-123.184916,Dairy Queen,fast_food,food/drink,Dunbar-Southlands
49.2254234,-123.0655278,Victoria Restaurant,restaurant,food/drink,Victoria-Fraserview
49.2880008,-123.1403568,Rio Brazilian Steakhouse,restaurant,food/drink,West End
49.28903,-123.1313276,Cinch Grill Italian,restaurant,food/drink,West End
49.29089,-123.1342671,Subway,fast_food,food/drink,West End
49.2081902,-123.1401346,Freshslice,fast_food,food/drink,Marpole
49.208235,-123.1401305,Donair Spot,fast_food,food/drink,Marpole
49.2792802,-123.1221082,,car_sharing,cars,Downtown
49.288517,-123.1200138,,car_sharing,cars,Downtown
49.288433,-123.1196552,,car_sharing,cars,Downtown
49.2255037,-123.0655768,South Vancouver Neighbourhood House,community_centre,arts/culture,Victoria-Fraserview
49.2257507,-123.0659387,Pho Thai Son Restaurant,restaurant,food/drink,Victoria-Fraserview
49.2258678,-123.0661456,On May Chinese Restaurant,restaurant,food/drink,Victoria-Fraserview
49.2318583,-123.0653897,Kim Phung Restaurant,restaurant,food/drink,Victoria-Fraserview
49.2312042,-123.0657754,Freshslice Pizza,fast_food,food/drink,Victoria-Fraserview
49.2320722,-123.065753,MK Chop Chop BBQ House,restaurant,food/drink,Victoria-Fraserview
49.2319986,-123.065745,Shun Fa Noodle House,restaurant,food/drink,Victoria-Fraserview
49.2335229,-123.0653161,Happy Sushi,restaurant,food/drink,Kensington-Cedar Cottage
49.2345972,-123.0656766,Pho Hue,restaurant,food/drink,Kensington-Cedar Cottage
49.2352414,-123.0652874,Brush Dental Clinic,dentist,healthcare,Kensington-Cedar Cottage
49.2353536,-123.065652,Banh Mi Saigon,restaurant,food/drink,Kensington-Cedar Cottage
49.2376464,-123.0655809,La Maison Da Nang,restaurant,food/drink,Kensington-Cedar Cottage
49.2385647,-123.0655669,Bun Cha Ca Hoang Yen,restaurant,food/drink,Kensington-Cedar Cottage
49.2385372,-123.0651956,Chau Veggie Express,restaurant,food/drink,Kensington-Cedar Cottage
49.2386583,-123.0655595,Kozak Ukraїnian Eatery,restaurant,food/drink,Kensington-Cedar Cottage
49.2429948,-123.0601948,17°C Dessert Café,restaurant,food/drink,Kensington-Cedar Cottage
49.2430699,-123.0603612,Kings Cafe,restaurant,food/drink,Kensington-Cedar Cottage
49.2428075,-123.0597783,Dentist on Kingsway,dentist,healthcare,Kensington-Cedar Cottage
49.2426381,-123.0592231,Pho Hoa Noodle Soup,restaurant,food/drink,Kensington-Cedar Cottage
49.2844778,-123.1123491,Simon Fraser University - Vancouver Campus,university,education/childcare,Downtown
49.2458146,-123.0900087,Masayoshi,restaurant,food/drink,Kensington-Cedar Cottage
49.2467148,-123.1010057,Meet on Main,restaurant,food/drink,Riley Park
49.2832439,-123.104844,Meet in Gastown,restaurant,food/drink,Downtown
49.2513521,-123.1011962,Bob Likes Thai Food,restaurant,food/drink,Riley Park
49.2507803,-123.1011735,The Fish Counter,restaurant,food/drink,Riley Park
49.2826068,-123.108081,Goldcorp Centre for the Arts,cinema,arts/culture,Downtown
49.2799912,-123.1164576,The Centre For Performing Arts,theatre,arts/culture,Downtown
49.2313896,-123.0657674,Mui Garden,restaurant,food/drink,Victoria-Fraserview
49.2630367,-123.1013042,Freshslice Pizza,fast_food,food/drink,Mount Pleasant
49.2630411,-123.1015414,Fable Diner,restaurant,food/drink,Mount Pleasant
49.2814683,-123.1172443,Glowbal,restaurant,food/drink,Downtown
49.215424,-123.1414876,,school,education/childcare,Marpole
49.2081236,-123.1407827,McDonald's,fast_food,food/drink,Marpole
49.265883,-123.0242786,McDonald's,fast_food,food/drink,Hastings-Sunrise
49.2467974,-123.068237,Subway,fast_food,food/drink,Kensington-Cedar Cottage
49.2500768,-123.0754182,CIBC,bank,money,Kensington-Cedar Cottage
49.2397524,-123.0656589,Husky,fuel,cars,Kensington-Cedar Cottage
49.2431859,-123.0614668,Scotiabank,bank,money,Kensington-Cedar Cottage
49.2453441,-123.0647227,Esso,fuel,cars,Kensington-Cedar Cottage
49.2335784,-123.0356778,,atm,money,Killarney
49.2343847,-123.0359255,CIBC,bank,money,Renfrew-Collingwood
49.2333893,-123.0664481,London Drugs,pharmacy,healthcare,Kensington-Cedar Cottage
49.2250307,-123.065343,Petro-Canada,fuel,cars,Victoria-Fraserview
49.2249906,-123.0543585,Chevron,fuel,cars,Victoria-Fraserview
49.233088,-123.0657292,McDonald's,fast_food,food/drink,Kensington-Cedar Cottage
49.233102,-123.0659438,Kent's Kitchen,fast_food,food/drink,Kensington-Cedar Cottage
49.233102,-123.066169,CIBC,atm,money,Kensington-Cedar Cottage
49.2324925,-123.0652357,BMO,bank,money,Victoria-Fraserview
49.2179211,-123.0774439,Chevron,fuel,cars,Sunset
49.2179175,-123.0766614,Hometown Pizza,fast_food,food/drink,Victoria-Fraserview
49.2599103,-123.077906,Shell,fuel,cars,Mount Pleasant
49.259793,-123.0771442,Super Save Gas,fuel,cars,Kensington-Cedar Cottage
49.2626077,-123.0779167,Petro-Canada,fuel,cars,Mount Pleasant
49.2256886,-123.0777235,Papa Dave's Pizza Indian Cuisine,fast_food,food/drink,Sunset
49.2182564,-123.0773813,McDonald's,fast_food,food/drink,Sunset
49.218387,-123.0766722,Petro-Canada,fuel,cars,Victoria-Fraserview
49.2329149,-123.0761197,East Side Craft House,pub,food/drink,Kensington-Cedar Cottage
49.2256116,-123.0777236,KFC,fast_food,food/drink,Sunset
49.2399746,-123.0767988,Petro-Canada,fuel,cars,Kensington-Cedar Cottage
49.2842334,-123.1090325,Water Street Cafe,restaurant,food/drink,Downtown
49.263537,-123.1271949,Minato Japanese Restaurant,restaurant,food/drink,Fairview
49.2633884,-123.1160798,McDonald's,fast_food,food/drink,Fairview
49.2635226,-123.1224895,TD Canada Trust,bank,money,Fairview
49.2635072,-123.1248994,Saravanaa Bhavan (South Indian),restaurant,food/drink,Fairview
49.2636175,-123.1293755,Finlandia Pharmacy,pharmacy,healthcare,Fairview
49.2634241,-123.1173128,Cactus Club Cafe,restaurant,food/drink,Fairview
49.2635191,-123.1231332,Tim Hortons,cafe,food/drink,Fairview
49.2632049,-123.1070497,Starbucks,cafe,food/drink,Mount Pleasant
49.2636456,-123.1316944,Royal Seoul House,restaurant,food/drink,Fairview
49.2635156,-123.1234175,Shoppers Drug Mart,pharmacy,healthcare,Fairview
49.2633312,-123.1130836,Menya Raizo,restaurant,food/drink,Mount Pleasant
49.2632776,-123.1106188,Fatburger,fast_food,food/drink,Mount Pleasant
49.2634113,-123.1182323,HSBC,bank,money,Fairview
49.2634842,-123.1209592,Broadway Medical Dental,doctors,healthcare,Fairview
49.2632663,-123.110529,,pub,food/drink,Mount Pleasant
49.2633362,-123.113621,Subway,fast_food,food/drink,Mount Pleasant
49.2634886,-123.1215189,A&W,fast_food,food/drink,Fairview
49.2370364,-123.0656459,Sandy La Chinese Restaurant,restaurant,food/drink,Kensington-Cedar Cottage
49.2371905,-123.0650559,Chevron,fuel,cars,Kensington-Cedar Cottage
49.2673455,-123.112992,Starbucks,cafe,food/drink,Mount Pleasant
49.2390725,-123.0650033,Dairy Queen,fast_food,food/drink,Kensington-Cedar Cottage
49.2769275,-123.0815616,La Casa Gelato,ice_cream,food/drink,Strathcona
49.2253629,-123.065926,The Medicine Shoppe,pharmacy,healthcare,Victoria-Fraserview
49.2412681,-123.1016459,Au Petit Café,restaurant,food/drink,Riley Park
49.291387,-123.1350164,Banana Leaf,restaurant,food/drink,West End
49.2907725,-123.1340782,Dinesty Dumpling House,restaurant,food/drink,West End
49.2906218,-123.1338516,McDonald's,fast_food,food/drink,West End
49.2899852,-123.1334918,Sushi Itoga,restaurant,food/drink,West End
49.2623252,-123.0886437,Nha Trang Restaurant,restaurant,food/drink,Mount Pleasant
49.2862655,-123.1276613,Momo Sushi,restaurant,food/drink,West End
49.2607875,-123.1008067,Mali Thai Food,restaurant,food/drink,Mount Pleasant
49.235221,-123.1157169,Starbucks,cafe,food/drink,Riley Park
49.234753,-123.1578937,Scotiabank,bank,money,Arbutus Ridge
49.2844578,-123.0656991,Scan-Delicious,restaurant,food/drink,Grandview-Woodland
49.2540898,-123.0835359,Windsor Dental Clinic,dentist,healthcare,Kensington-Cedar Cottage
49.2466625,-123.0687676,Moneymart,bank,money,Kensington-Cedar Cottage
49.2393554,-123.0521691,,dentist,healthcare,Renfrew-Collingwood
49.2344287,-123.0360721,Chef Pin,restaurant,food/drink,Renfrew-Collingwood
49.2623272,-123.0898418,Klasik Inasal,restaurant,food/drink,Mount Pleasant
49.291675,-123.1348931,Rad on Denman,restaurant,food/drink,West End
49.2798847,-123.1068032,Canra Plus,fast_food,food/drink,Downtown
49.2799835,-123.1065637,Ryo,fast_food,food/drink,Downtown
49.2800531,-123.1064691,India’s Flavour,fast_food,food/drink,Downtown
49.2800925,-123.1064315,Kazoku,fast_food,food/drink,Downtown
49.280725,-123.1066368,Find + Seek,community_centre,arts/culture,Downtown
49.2808969,-123.1073143,McDonald's,fast_food,food/drink,Downtown
49.2808034,-123.1074514,Goldies,restaurant,food/drink,Downtown
49.2808098,-123.1070156,Caveman Cafe,cafe,food/drink,Downtown
49.280211800000004,-123.1071123,Mtt Centre,bureau_de_change,money,Downtown
49.2802068,-123.1068483,Shiny Tea,bar,food/drink,Downtown
49.2799281,-123.1066781,Taco Time,fast_food,food/drink,Downtown
49.2801333,-123.1063965,Abdul's Bbq,restaurant,food/drink,Downtown
49.2799047,-123.106734,Bubble King,fast_food,food/drink,Downtown
49.2799553,-123.1066209,Tina,fast_food,food/drink,Downtown
49.2800166,-123.1065184,Thai Town,fast_food,food/drink,Downtown
49.2801753,-123.1063639,Wow Thai Food,fast_food,food/drink,Downtown
49.2802143,-123.1063341,Bali Thai,fast_food,food/drink,Downtown
49.2802598,-123.1063002,Giant Panda,fast_food,food/drink,Downtown
49.280766,-123.1068858,Piranha,community_centre,arts/culture,Downtown
49.2807019,-123.106855,Game Center,community_centre,arts/culture,Downtown
49.2309718,-123.0653719,Lucky Dragon Palace Restaurant,restaurant,food/drink,Victoria-Fraserview
49.2710854,-123.1553081,Cafe Zen,restaurant,food/drink,Kitsilano
49.2578875,-123.0331989,Esso,fuel,cars,Renfrew-Collingwood
49.2691827,-123.0694303,Federico's Supper Club,restaurant,food/drink,Grandview-Woodland
49.2777606,-123.0760415,Off The Rail Tasting Room,bar,food/drink,Grandview-Woodland
49.2774745,-123.0745168,Bomber Tasting Room,bar,food/drink,Grandview-Woodland
49.285214,-123.1112924,Zipcar,car_sharing,cars,Downtown
49.2697538,-123.1024558,,car_sharing,cars,Mount Pleasant
49.262662,-123.0926546,Tonari Gumi– Japanese Community Volunteers Association,community_centre,arts/culture,Mount Pleasant
49.2733358,-123.1195188,The Wine Bar,bar,food/drink,Downtown
49.2891552,-123.138644,Shoppers Drug Mart,pharmacy,healthcare,West End
49.2830915,-123.1356339,Kinara,restaurant,food/drink,West End
49.2916382,-123.1417864,,car_sharing,cars,West End
49.2869536,-123.1410819,The Park at English Bay,restaurant,food/drink,West End
49.28645,-123.1403248,Yummy to Go,fast_food,food/drink,West End
49.286609,-123.1405889,Grotto,restaurant,food/drink,West End
49.2865567,-123.1410036,Tim Hortons,cafe,food/drink,West End
49.2785849,-123.0706042,York Theatre,theatre,arts/culture,Grandview-Woodland
49.2701364,-123.1087347,BMO Theatre Centre,theatre,arts/culture,Mount Pleasant
49.2249319,-123.1086853,Studio 58,theatre,arts/culture,Oakridge
49.2037107,-123.1375228,Metro Theatre,theatre,arts/culture,Marpole
49.2911911,-123.1301625,PAL Studio Theatre,theatre,arts/culture,Downtown
49.2726318,-123.1353692,Fraser Valley Juice,fast_food,food/drink,Fairview
49.2726607,-123.1353169,Pizza Pzazz,fast_food,food/drink,Fairview
49.2849397,-123.0649633,Princeton Pub,pub,food/drink,Grandview-Woodland
49.2849952,-123.0643845,Husky,fuel,cars,Grandview-Woodland
49.2821283,-123.1164589,Bay Sushi Cafe,fast_food,food/drink,Downtown
49.2820949,-123.1165023,Kung Fu Noodle,fast_food,food/drink,Downtown
49.2827302,-123.115289,Enjoy Canada,school,education/childcare,Downtown
49.2826167,-123.1151176,Pokérrito,fast_food,food/drink,Downtown
49.282708,-123.1147514,Dae Ji,fast_food,food/drink,Downtown
49.2826109,-123.1146226,Sushi Home,fast_food,food/drink,Downtown
49.2825668,-123.1145555,Big Bowl Rice,fast_food,food/drink,Downtown
49.2841314,-123.1083829,Pourhouse,pub,food/drink,Downtown
49.280558,-123.1345339,,car_sharing,cars,West End
49.2756868,-123.1281101,Cecil Bar,bar,food/drink,Downtown
49.2915693,-123.1275164,Cardero's,restaurant,food/drink,Downtown
49.2839339,-123.1223497,Shabusen,restaurant,food/drink,West End
49.274232,-123.1239335,House Special,restaurant,food/drink,Downtown
49.2747239,-123.1227038,La Pentala,restaurant,food/drink,Downtown
49.2745568,-123.1232818,Kuma,restaurant,food/drink,Downtown
49.2744227,-123.1235737,Saigon Xua,restaurant,food/drink,Downtown
49.274321,-123.1237748,Tasty Indian Bistro,restaurant,food/drink,Downtown
49.2741305,-123.1241126,Soho,bar,food/drink,Downtown
49.2753903,-123.1216407,Yaletown Distilling Company,bar,food/drink,Downtown
49.275171,-123.1225726,Hapa Izakaya,restaurant,food/drink,Downtown
49.2750527,-123.1221518,Living Produce Aisle,fast_food,food/drink,Downtown
49.2751034,-123.1220829,The Flying Pig,restaurant,food/drink,Downtown
49.2747508,-123.1193599,,car_sharing,cars,Downtown
49.2752946,-123.1211862,Robba Da Matti,restaurant,food/drink,Downtown
49.2752508,-123.1212681,The Distillery Bar,bar,food/drink,Downtown
49.2751593,-123.1213923,Paulies Kitchen,restaurant,food/drink,Downtown
49.2750611,-123.1210797,Zend Conscious Lounge,restaurant,food/drink,Downtown
49.2751119,-123.1214624,Mister,fast_food,food/drink,Downtown
49.274839,-123.1218884,Sushi Maro,restaurant,food/drink,Downtown
49.2829831,-123.1098733,New Amsterdam Cafe,cafe,food/drink,Downtown
49.2613286,-123.1007513,Josephines Restaurant and Catering,restaurant,food/drink,Mount Pleasant
49.2616715,-123.1007497,The Cascade,bar,food/drink,Mount Pleasant
49.261745,-123.1007497,Charlie's Little Italian,restaurant,food/drink,Mount Pleasant
49.2624382,-123.1007191,Bean Around The World,cafe,food/drink,Mount Pleasant
49.262522,-123.1007068,Cafe Barney,restaurant,food/drink,Mount Pleasant
49.2631687,-123.1007163,Frenchies Diner,restaurant,food/drink,Mount Pleasant
49.263303,-123.1007167,Pizza 604,fast_food,food/drink,Mount Pleasant
49.2631099,-123.1018738,Chutney Villa,restaurant,food/drink,Mount Pleasant
49.2624451,-123.1012839,Kafka's Coffee and Tea,cafe,food/drink,Mount Pleasant
49.2635678,-123.1006513,The Wallflower,restaurant,food/drink,Mount Pleasant
49.2622376,-123.1012945,Sunny Spot,cafe,food/drink,Mount Pleasant
49.2789626,-123.132118,,car_sharing,cars,West End
49.2817618,-123.1302562,,car_sharing,cars,West End
49.2823816,-123.1312193,,car_sharing,cars,West End
49.2481556,-123.1008994,Yum Sweet Shop,ice_cream,food/drink,Riley Park
49.2788885,-123.1286414,,car_sharing,cars,Downtown
49.255696,-123.0896525,Bells And Whistles,restaurant,food/drink,Kensington-Cedar Cottage
49.2559475,-123.0877967,Thanh Thanh,restaurant,food/drink,Kensington-Cedar Cottage
49.2826274,-123.1252133,Le Crocrodile,restaurant,food/drink,West End
49.2638283,-123.1413786,Earls,restaurant,food/drink,Fairview
49.2634479,-123.1380669,McDonald's,fast_food,food/drink,Fairview
49.2340385,-123.1158694,CIBC,bank,money,Riley Park
49.2345812,-123.1157037,Vancity,bank,money,Riley Park
49.2267483,-123.128868,A&W,fast_food,food/drink,Oakridge
49.2342169,-123.1276449,Petro-Canada,fuel,cars,South Cambie
49.2835819,-123.1040678,Local Public Eatery,restaurant,food/drink,Downtown
49.2832515,-123.105379,Gringo,bar,food/drink,Downtown
49.2796709,-123.1221195,Harvey's,fast_food,food/drink,Downtown
49.2475507,-123.1013532,Restaurant Yugo,restaurant,food/drink,Riley Park
49.2332678,-123.1012746,Subway,fast_food,food/drink,Riley Park
49.2347512,-123.1582643,Tim Hortons,cafe,food/drink,Arbutus Ridge
49.2734049,-123.1582825,Kitsilano Showboat,theatre,arts/culture,Kitsilano
49.2729377,-123.0997917,Starbucks,cafe,food/drink,Strathcona
49.247577,-123.1850924,Shoppers Drug Mart,pharmacy,healthcare,Dunbar-Southlands
49.2739585,-123.0980509,A&W,fast_food,food/drink,Strathcona
49.2730825,-123.1039764,White Spot Triple O's,fast_food,food/drink,Downtown
49.26437,-123.1674354,Starbucks,cafe,food/drink,Kitsilano
49.2600139,-123.1153253,"Yuck, Yucks Comedy Club",theatre,arts/culture,Fairview
49.2838013,-123.1158299,Urban Sushi,fast_food,food/drink,Downtown
49.283684,-123.1159815,Caffe Artigiano,cafe,food/drink,Downtown
49.2848065,-123.1143227,Trees Coffee,cafe,food/drink,Downtown
49.2847372,-123.1144476,Creme de la Crumb,cafe,food/drink,Downtown
49.2714968,-123.1006411,Dubh Linn Gate,pub,food/drink,Mount Pleasant
49.2730334,-123.1003915,A&W,fast_food,food/drink,Downtown
49.2814148,-123.1194673,Café Crêpe,cafe,food/drink,Downtown
49.28125,-123.085345,Writer's Exchange,childcare,education/childcare,Strathcona
49.2881125,-123.1146371,,cafe,food/drink,Downtown
49.2716466,-123.1350547,,atm,money,Fairview
49.2716398,-123.1350735,,atm,money,Fairview
49.269267,-123.138821,Afghan Horsemen Restaurant,restaurant,food/drink,Fairview
49.2768255,-123.1188266,,charging_station,cars,Downtown
49.2763417,-123.119189,Yaletown Laser Centre,dentist,healthcare,Downtown
49.2764454,-123.1195159,Tacofino,restaurant,food/drink,Downtown
49.2763998,-123.1196013,West Oak,restaurant,food/drink,Downtown
49.2760785,-123.1195802,Enamel,dentist,healthcare,Downtown
49.2760414,-123.1196355,Chasers,cafe,food/drink,Downtown
49.2759204,-123.1203048,Wild Tale,restaurant,food/drink,Downtown
49.2756829,-123.120168,Lime & Moon Pie Company,cafe,food/drink,Downtown
49.278575,-123.1141123,Fanny Bay Oyster Bar,restaurant,food/drink,Downtown
49.2773179,-123.1171798,Vancouver English Centre,school,education/childcare,Downtown
49.2762885,-123.1197566,The Greek by Anatoli,restaurant,food/drink,Downtown
49.2764887,-123.1189668,Subway,fast_food,food/drink,Downtown
49.2764101,-123.1190813,Coffee House,cafe,food/drink,Downtown
49.2590457,-123.1389288,KYO Korean BBQ & Sushi house,restaurant,food/drink,Fairview
49.2898003,-123.1168924,Tap & Barrel,pub,food/drink,Downtown
49.2790349,-123.1235947,Johnnie Fox's,bar,food/drink,Downtown
49.2796065,-123.0988652,Evergreen Taoist Church Of Canada,place_of_worship,arts/culture,Strathcona
49.274204,-123.1537534,The Boathouse Restaurant,restaurant,food/drink,Kitsilano
49.2861774,-123.1269715,Blenz,cafe,food/drink,West End
49.2578148,-123.1650598,Trafalgars Bistro,restaurant,food/drink,Kitsilano
49.2577236,-123.1650747,Metro News,vending_machine,food/drink,Kitsilano
49.2577236,-123.1650881,Metro News,vending_machine,food/drink,Kitsilano
49.2577245,-123.1651002,Homes and Land Magazine,vending_machine,food/drink,Kitsilano
49.2638449,-123.1000453,Pleasant Beans Coffee House,cafe,food/drink,Mount Pleasant
49.2821626,-123.1045058,Nelson the Seagull,cafe,food/drink,Downtown
49.2870382,-123.1181012,Blenz Coffee,cafe,food/drink,Downtown
49.2898216,-123.1332015,Book Kyung Ban Jeoun & BK Karaoke,fast_food,food/drink,West End
49.2637838,-123.1393347,Bob Likes Thai Food,restaurant,food/drink,Fairview
49.2324291,-123.0903793,New Bhaia Sweet Shop and Restaurant,restaurant,food/drink,Sunset
49.2787749,-123.1146836,The Post at 750,arts_centre,arts/culture,Downtown
49.2807848,-123.124856,The Alley,fast_food,food/drink,Downtown
49.2255047,-123.1013836,Roots Café,cafe,food/drink,Sunset
49.2701699,-123.0568935,Song Huong,restaurant,food/drink,Grandview-Woodland
49.2427539,-123.0604213,Cafe Xu Hue,restaurant,food/drink,Kensington-Cedar Cottage
49.2428186,-123.0605662,Veggie Bowl,restaurant,food/drink,Kensington-Cedar Cottage
49.290443,-123.1176585,The Cockpit,cafe,food/drink,Downtown
49.2786525,-123.0986447,The Ramen Butcher,restaurant,food/drink,Strathcona
49.2786612,-123.0989183,Fat Mao Noodles,restaurant,food/drink,Strathcona
49.2786408,-123.0980142,Mamie Taylor's,restaurant,food/drink,Strathcona
49.2790657,-123.0999382,Pacific Poke,restaurant,food/drink,Downtown
49.2793572,-123.1002146,Juke,restaurant,food/drink,Downtown
49.2805161,-123.1001666,New Mitzie's Restaurant,restaurant,food/drink,Downtown
49.2802926,-123.1009532,Sai Woo,restaurant,food/drink,Downtown
49.2805359,-123.1010107,Jade Dynasty Restaurant,restaurant,food/drink,Downtown
49.2750331,-123.07707,Truck Stop Cafe,restaurant,food/drink,Grandview-Woodland
49.2253128,-123.0543177,Shoppers Drug Mart,pharmacy,healthcare,Victoria-Fraserview
49.2255504,-123.0542783,Yu Ki BBQ Kitchen,restaurant,food/drink,Victoria-Fraserview
49.2254057,-123.0535119,Pho Thai Ha,restaurant,food/drink,Victoria-Fraserview
49.2255252,-123.0535282,Bubble Waffle Cafe,restaurant,food/drink,Victoria-Fraserview
49.2716748,-123.0947341,Subway,fast_food,food/drink,Strathcona
49.2717323,-123.0948814,Taco Del Mar,fast_food,food/drink,Strathcona
49.2717729,-123.0951169,Bibi's Kitchen,restaurant,food/drink,Strathcona
49.2189394,-123.0911857,Dosa Hut,restaurant,food/drink,Sunset
49.2106756,-123.140807,Scotiabank,bank,money,Marpole
49.2028492,-123.1355857,Fresh Window Cafe,restaurant,food/drink,Marpole
49.2209906,-123.0660423,Lim Kee Restaurant,restaurant,food/drink,Victoria-Fraserview
49.2208148,-123.0656937,Paragon Pizza,fast_food,food/drink,Victoria-Fraserview
49.2208617,-123.0656957,Huang's Beef Noodle,restaurant,food/drink,Victoria-Fraserview
49.2204323,-123.0656741,Karakoram Restaurant,restaurant,food/drink,Victoria-Fraserview
49.2837396,-123.1184966,Prohibition,bar,food/drink,Downtown
49.2623856,-123.0570115,Subway,restaurant,food/drink,Grandview-Woodland
49.2334631,-123.034937,Peaceful Restaurant,restaurant,food/drink,Killarney
49.2336484,-123.0353109,Happy Day Cafe,restaurant,food/drink,Killarney
49.2754574,-123.122855,,car_sharing,cars,Downtown
49.2344888,-123.0361888,Beijiang Restaurant,restaurant,food/drink,Renfrew-Collingwood
49.2340779,-123.0353715,The Captain's Boil,restaurant,food/drink,Renfrew-Collingwood
49.2340261,-123.0352637,Congee Noodle King,restaurant,food/drink,Renfrew-Collingwood
49.233308,-123.0338835,Milk & Sugar Cafe,cafe,food/drink,Renfrew-Collingwood
49.2336081,-123.034457,Hyoga Japanese Cuisine,restaurant,food/drink,Renfrew-Collingwood
49.2367332,-123.0328356,Collingwood Neighbourhood House,community_centre,arts/culture,Renfrew-Collingwood
49.2372522,-123.0325583,Subway,fast_food,food/drink,Renfrew-Collingwood
49.2371034,-123.0327185,Joyce Station Dental Clinic,dentist,healthcare,Renfrew-Collingwood
49.2371809,-123.0326238,Japanese Bistro Kammone,restaurant,food/drink,Renfrew-Collingwood
49.2378821,-123.0325571,Joyce Jiaozi,restaurant,food/drink,Renfrew-Collingwood
49.2380309,-123.0322916,Sunflower Bubble Tea,cafe,food/drink,Renfrew-Collingwood
49.2380099,-123.0317471,Community Savings Credit Union,bank,money,Renfrew-Collingwood
49.2637503,-123.0242122,Subway,fast_food,food/drink,Renfrew-Collingwood
49.2638667,-123.0312546,Thunderbird Community Centre,community_centre,arts/culture,Hastings-Sunrise
49.2910317,-123.1345214,Flower & Horse In Spring,restaurant,food/drink,West End
49.2910385,-123.1350396,CIBC,bank,money,West End
49.2915752,-123.1350632,Kintaro Ramen,restaurant,food/drink,West End
49.290869,-123.1361726,Gon's Izakaya,restaurant,food/drink,West End
49.2909208,-123.1365182,Milano Coffee Roasters,cafe,food/drink,West End
49.2909663,-123.1364555,Ma Dang Goul,restaurant,food/drink,West End
49.2911594,-123.1361591,Zakkushi,restaurant,food/drink,West End
49.2913209,-123.135935,Breka Bakery & Cafe,cafe,food/drink,West End
49.2914,-123.1357879,Ukrainian Village Restaurant,restaurant,food/drink,West End
49.2869563,-123.1419736,The Blind Sparrow,restaurant,food/drink,West End
49.2922345,-123.1346714,Ciao Bella Restaurant,restaurant,food/drink,West End
49.2902367,-123.1375735,Blenz Coffee,cafe,food/drink,West End
49.2904186,-123.1372778,Hui Lau Shan,cafe,food/drink,West End
49.2906257,-123.1369719,Damso Restaurant,restaurant,food/drink,West End
49.2907765,-123.1367384,Khaghan Restaurant,restaurant,food/drink,West End
49.2838137,-123.1066099,The Flying Pig Gastown,restaurant,food/drink,Downtown
49.2831459,-123.103036,Rodney's Oyster House,restaurant,food/drink,Downtown
49.2888741,-123.13173,Sura Korean,restaurant,food/drink,West End
49.2899063,-123.1333084,Hongdae Pocha Korean,restaurant,food/drink,West End
49.2833353,-123.1174336,Opa! Of Greece,fast_food,food/drink,Downtown
49.261624,-123.138068,Vij's,restaurant,food/drink,Fairview
49.2634412,-123.1399645,Liquids + Solids,restaurant,food/drink,Fairview
49.2628124,-123.1375056,Firehall Branch,library,arts/culture,Fairview
49.263051,-123.138435,Vancouver Bullion & Currency Exchange,bureau_de_change,money,Fairview
49.2308106,-123.0908083,Little Caesars,fast_food,food/drink,Sunset
49.2401479,-123.0649331,Indian Bay Leaf,restaurant,food/drink,Kensington-Cedar Cottage
49.2615422,-123.0473514,West Coast Family Resources Society,family_centre,education/childcare,Renfrew-Collingwood
49.2740786,-123.1213858,Loving Hut Express food van,fast_food,food/drink,Downtown
49.27041,-123.0690156,Chinese Grace Mennonite Church,place_of_worship,arts/culture,Grandview-Woodland
49.2846042,-123.1245931,Starbucks,cafe,food/drink,West End
49.2359963,-123.0408229,The Medicine Shoppe Pharmacy,pharmacy,healthcare,Renfrew-Collingwood
49.2687642,-123.183797,Aphrodite's Organic Cafe,cafe,food/drink,Kitsilano
49.268464,-123.1854523,Blenz Coffee,cafe,food/drink,Kitsilano
49.2468517,-123.1009139,The Shameful Tiki,bar,food/drink,Riley Park
49.2608452,-123.1008071,Lucy's Eastside Diner,restaurant,food/drink,Mount Pleasant
49.210637,-123.0922057,Panos,restaurant,food/drink,Sunset
49.2732782,-123.119664,Provence Marinaside,restaurant,food/drink,Downtown
49.2087716,-123.1408605,RBC,bank,money,Marpole
49.2861746,-123.1169768,The Butcher & Bullock,restaurant,food/drink,Downtown
49.2799921,-123.1197031,Hollywood North,bar,food/drink,Downtown
49.2772057,-123.1265215,Numero Uno Pizza,fast_food,food/drink,Downtown
49.280322,-123.1197278,Vancouver Symphony Orchestra School of Music,music_school,education/childcare,Downtown
49.2789586,-123.1212246,Starbucks,cafe,food/drink,Downtown
49.2783848,-123.1220442,Nero Belgian Waffle Bar,cafe,food/drink,Downtown
49.2777635,-123.1236147,Gathering Place,community_centre,arts/culture,Downtown
49.277516,-123.1270838,Sushi Howe,fast_food,food/drink,Downtown
49.2098852,-123.0817139,Dogwood Lounge,bar,food/drink,Sunset
49.2834485,-123.1221671,Shoppers Drug Mart,pharmacy,healthcare,Downtown
49.2803131,-123.1216797,Cinema Public House,pub,food/drink,Downtown
49.2818072,-123.1240096,Kamei Baru,restaurant,food/drink,Downtown
49.2801553,-123.1209311,Pizza Garden,fast_food,food/drink,Downtown
49.2817082,-123.1238709,Pacifico,restaurant,food/drink,Downtown
49.2795601,-123.1301791,Urban Animal Hospital,veterinary,healthcare,West End
49.2794471,-123.1300198,Donair King,fast_food,food/drink,West End
49.2829389,-123.115118,Railway Club,bar,food/drink,Downtown
49.2784178,-123.1182179,Homer St Cafe and Bar,cafe,food/drink,Downtown
49.2802018,-123.1306708,Kadoya,restaurant,food/drink,West End
49.2802263,-123.1307093,Fat Burger,fast_food,food/drink,West End
49.2884539,-123.1398069,Legendary Noodle House,restaurant,food/drink,West End
49.2098186,-123.1157123,Cineplex Cinemas Marine Gateway and VIP,cinema,arts/culture,Marpole
49.2488234,-123.1850998,Dunbar Family Dental,dentist,healthcare,Dunbar-Southlands
49.282764,-123.1102832,Nemesis,cafe,food/drink,Downtown
49.290792,-123.1362563,True Confections,cafe,food/drink,West End
49.2630575,-123.1164431,Yolks,restaurant,food/drink,Fairview
49.2906033,-123.1333902,Marutama Ra-men,restaurant,food/drink,West End
49.2901947,-123.1338172,Snowy Village,restaurant,food/drink,West End
49.2901644,-123.1337321,Hokkaido Ramen Santouka,restaurant,food/drink,West End
49.2786956,-123.1290885,Dolce Dental,dentist,healthcare,Downtown
49.2759064,-123.1278016,Yale Hotel,pub,food/drink,Downtown
49.2643652,-123.0699251,Poke Five,restaurant,food/drink,Grandview-Woodland
49.2751885,-123.1230969,,car_sharing,cars,Downtown
49.2747084,-123.0692817,Moja Coffee,cafe,food/drink,Grandview-Woodland
49.2694998,-123.1077015,The Flying Pig,restaurant,food/drink,Mount Pleasant
49.2877451,-123.1206603,Le Petit Crêpe,restaurant,food/drink,Downtown
49.288332,-123.1225965,Panago Pizza,restaurant,food/drink,Downtown
49.2871644,-123.1197099,Quiznos,fast_food,food/drink,Downtown
49.2874987,-123.1233065,Tableau,restaurant,food/drink,Downtown
49.2732428,-123.2031796,N.S.C.S. Discovery Café,restaurant,food/drink,West Point Grey
49.2872861,-123.1235682,Domo Sushi,restaurant,food/drink,Downtown
49.2293878,-123.0904982,Pizza Hut,restaurant,food/drink,Sunset
49.2263571,-123.0905461,Baker & Table,cafe,food/drink,Sunset
49.2311162,-123.0904218,Tim Hortons,fast_food,food/drink,Sunset
49.2904957,-123.134221,J&G Fried Chicken,restaurant,food/drink,West End
49.2606246,-123.1389371,TD Canada Trust,bank,money,Fairview
49.2631873,-123.1357151,Esso,fuel,cars,Fairview
49.2632255,-123.1333895,Denny's,restaurant,food/drink,Fairview
49.2434728,-123.0621724,KFC,fast_food,food/drink,Kensington-Cedar Cottage
49.2422331,-123.0582993,Petro-Canada,fuel,cars,Kensington-Cedar Cottage
49.2455618,-123.065501,TD Canada Trust,bank,money,Kensington-Cedar Cottage
49.2340358,-123.0651963,Vancity,bank,money,Kensington-Cedar Cottage
49.2361234,-123.0649329,Golden Swan Restaurant,restaurant,food/drink,Kensington-Cedar Cottage
49.2375315,-123.0650461,El Caracol Mexican Cafe,cafe,food/drink,Kensington-Cedar Cottage
49.238342,-123.0651748,Amay's House,restaurant,food/drink,Kensington-Cedar Cottage
49.2220062,-123.0654991,Husky,fuel,cars,Victoria-Fraserview
49.2338397,-123.0656839,Shima-Ya,restaurant,food/drink,Kensington-Cedar Cottage
49.2249907,-123.0535233,Scotiabank,bank,money,Victoria-Fraserview
49.2251239,-123.0535019,Starbucks,cafe,food/drink,Victoria-Fraserview
49.2581579,-123.1009455,Papa's Gourmet Pizza,fast_food,food/drink,Mount Pleasant
49.2583043,-123.1014597,CIBC,atm,money,Mount Pleasant
49.2579769,-123.1013928,Great Han Mongolian BBQ,restaurant,food/drink,Mount Pleasant
49.244615,-123.1015349,CIBC,bank,money,Riley Park
49.2481608,-123.101283,Nam Nam Noodle,restaurant,food/drink,Riley Park
49.2503562,-123.1007457,Sun Sui Wah Seafood Restaurant,restaurant,food/drink,Riley Park
49.2325226,-123.090106,Church's Chicken,fast_food,food/drink,Sunset
49.2327257,-123.1011701,Chevron,fuel,cars,Sunset
49.225652,-123.0911079,TD Canada Trust,bank,money,Sunset
49.2253293,-123.0909661,RBC,bank,money,Sunset
49.2882295,-123.1233339,Waves Coffee House,cafe,food/drink,Downtown
49.2072816,-123.1401928,Shell,fuel,cars,Marpole
49.2040556,-123.134982,Wick's Cafe,cafe,food/drink,Marpole
49.2792588,-123.1074257,Uncle Fatih's Pizza,fast_food,food/drink,Downtown
49.2793502,-123.1078358,Freshslice,fast_food,food/drink,Downtown
49.2791132,-123.1074224,Something Healthy,fast_food,food/drink,Downtown
49.2799372,-123.1073562,Starbucks,cafe,food/drink,Downtown
49.2294991,-123.0903994,Vancouver Public Library South Hill Branch,library,arts/culture,Sunset
49.2281819,-123.0904315,CIBC,bank,money,Sunset
49.2275233,-123.0904316,Vancity,bank,money,Sunset
49.2272186,-123.0909139,Shoppers Drug Mart,pharmacy,healthcare,Sunset
49.2284031,-123.0908169,Subway,fast_food,food/drink,Sunset
49.2299673,-123.0908342,Good Choice Restaurant,restaurant,food/drink,Sunset
49.225603,-123.0905516,Scotiabank,bank,money,Sunset
49.2808303,-123.045249,Dijo's Pizza,fast_food,food/drink,Hastings-Sunrise
49.2808273,-123.0455124,Phở Don,restaurant,food/drink,Hastings-Sunrise
49.2808213,-123.0457204,Subway,fast_food,food/drink,Hastings-Sunrise
49.2808273,-123.0457851,Blowfish Sushi,restaurant,food/drink,Hastings-Sunrise
49.2599379,-123.0700275,Naruto Sushi,restaurant,food/drink,Kensington-Cedar Cottage
49.2813339,-123.0454428,PressBox Pub,pub,food/drink,Hastings-Sunrise
49.2769121,-123.0805868,Luppolo Tasting Room,bar,food/drink,Strathcona
49.2056182,-123.0308894,Westminster Savings,bank,money,Killarney
49.2195297,-123.0408142,Little Caesars,fast_food,food/drink,Killarney
49.2193183,-123.0410871,54th Ave Cafe,restaurant,food/drink,Killarney
49.2687655,-123.1853463,La Quercia,restaurant,food/drink,Kitsilano
49.2746801,-123.0698694,Sweet Cherubim,cafe,food/drink,Grandview-Woodland
49.2741725,-123.0697026,Truong Thanh,restaurant,food/drink,Grandview-Woodland
49.2720241,-123.0694039,Marcello Woodfire Pizza Oven,restaurant,food/drink,Grandview-Woodland
49.2720257,-123.0697488,Cafe Phin Phap,restaurant,food/drink,Grandview-Woodland
49.2717708,-123.0697537,Donair Town,restaurant,food/drink,Grandview-Woodland
49.2718565,-123.0697521,Soly's Pizza,restaurant,food/drink,Grandview-Woodland
49.2718137,-123.0697529,Hinn Ramen,restaurant,food/drink,Grandview-Woodland
49.271728,-123.0697546,Ginger Sushi,restaurant,food/drink,Grandview-Woodland
49.2716423,-123.0697562,Tatsu Japanese Bistro,restaurant,food/drink,Grandview-Woodland
49.2716851,-123.0697554,Tandoori Palace,restaurant,food/drink,Grandview-Woodland
49.2719391,-123.0694126,Harbour Oyster + Bar,restaurant,food/drink,Grandview-Woodland
49.2718891,-123.0694101,Sake Maki Sushi,restaurant,food/drink,Grandview-Woodland
49.262639,-123.0894073,Ba Le Deli & Bakery,restaurant,food/drink,Mount Pleasant
49.2424921,-123.0598386,Sushi by Yuji,restaurant,food/drink,Kensington-Cedar Cottage
49.25002,-123.0763241,Pallet Coffee Roasters,cafe,food/drink,Kensington-Cedar Cottage
49.2535053,-123.0826128,Sharons,bank,money,Kensington-Cedar Cottage
49.262628,-123.0874661,KFC,fast_food,food/drink,Mount Pleasant
49.2433917,-123.0608254,Billiards,community_centre,arts/culture,Kensington-Cedar Cottage
49.2322045,-123.0294425,Dragon Crepe,restaurant,food/drink,Renfrew-Collingwood
49.2353139,-123.0381182,Metro Cafe Bar,cafe,food/drink,Renfrew-Collingwood
49.2445983,-123.0643641,The Tipper,restaurant,food/drink,Kensington-Cedar Cottage
49.2571435,-123.1202522,Tandem Bike Cafe,cafe,food/drink,Fairview
49.2723618,-123.0693179,Rosemary Bagels,fast_food,food/drink,Grandview-Woodland
49.279512,-123.1204403,Uva,bar,food/drink,Downtown
49.2698716,-123.0439878,Rib & Chicken,restaurant,food/drink,Hastings-Sunrise
49.267356,-123.1110469,Big Rock Urban Eatery,pub,food/drink,Mount Pleasant
49.27993,-123.1275716,Burgoo,restaurant,food/drink,Downtown
49.2767582,-123.1201461,Fayuca,bar,food/drink,Downtown
49.2766247,-123.119889,Pierre's,restaurant,food/drink,Downtown
49.2763346,-123.1202702,Yaletown Dentistry,dentist,healthcare,Downtown
49.2761259,-123.1206022,Wild Tale,restaurant,food/drink,Downtown
49.276058,-123.1163868,,car_sharing,cars,Downtown
49.239286,-123.0527783,Andamiro Korean Bistro,restaurant,food/drink,Renfrew-Collingwood
49.2265082,-123.1013699,Naz's Pharmacy,pharmacy,healthcare,Sunset
49.2250996,-123.1014359,All India Sweets & Restaurant,restaurant,food/drink,Sunset
49.2248105,-123.1018704,Himalaya Restaurant,restaurant,food/drink,Sunset
49.2802382,-123.1232584,Railtown Cafe,cafe,food/drink,Downtown
49.2492105,-123.1151223,Scotiabank,bank,money,Riley Park
49.2798153,-123.1236381,Freshii,restaurant,food/drink,Downtown
49.2835624,-123.1038811,The Portside Pub,pub,food/drink,Downtown
49.2382172,-123.0321396,Milk & Sugar BBQ Bar,restaurant,food/drink,Renfrew-Collingwood
49.2762126,-123.1352347,,car_sharing,cars,West End
49.2810135,-123.0563034,Thailicious,restaurant,food/drink,Hastings-Sunrise
49.2327946,-123.034803,Wang's Shanghai Cuisine,restaurant,food/drink,Killarney
49.2737081,-123.1234743,Ki Isu Japanese Restaurant,restaurant,food/drink,Downtown
49.2737767,-123.1232261,Little Saigon Yaletown,restaurant,food/drink,Downtown
49.2717552,-123.1060666,Tap & Barrel,pub,food/drink,Mount Pleasant
49.2873005,-123.1283864,Koyuki Sapporo Ramen,restaurant,food/drink,West End
49.2093679,-123.1165285,Starbucks,cafe,food/drink,Marpole
49.2094689,-123.1164992,Subway,fast_food,food/drink,Marpole
49.2100434,-123.1165904,CIBC Branch & ATM,bank,money,Marpole
49.2101551,-123.1161572,Pink Elephant Thai Restaurant,restaurant,food/drink,Marpole
49.20957,-123.1165236,BMO,bank,money,Marpole
49.2102423,-123.1161539,Shoppers Drug Mart,pharmacy,healthcare,Marpole
49.2100902,-123.1161637,TD Canada Trust,bank,money,Marpole
49.2096666,-123.1165194,Marine Cambie Dental,dentist,healthcare,Marpole
49.2670223,-123.1451203,Elysian Coffee Roasters,cafe,food/drink,Fairview
49.254981,-123.1149488,Westside Montessori,kindergarten,education/childcare,Riley Park
49.2711559,-123.1358083,The Keg,restaurant,food/drink,Fairview
49.2706361,-123.1366509,The Vancouver Fish Company,restaurant,food/drink,Fairview
49.2707436,-123.1363777,Tony's Fish and Oyster Café,restaurant,food/drink,Fairview
49.2719814,-123.134014,The Sandbar,restaurant,food/drink,Fairview
49.2859301,-123.1182815,Blenz Coffee,cafe,food/drink,Downtown
49.275651,-123.2017542,The Galley Restaurant and Grill,restaurant,food/drink,West Point Grey
49.2859297,-123.119391,BMO Bank of Montreal,bank,money,Downtown
49.2873653,-123.1287891,Bubble World Tea House,cafe,food/drink,West End
49.2862733,-123.127097,Scotiabank,bank,money,West End
49.2745077,-123.1163648,Zipcar,car_sharing,cars,Downtown
49.2695376,-123.1035172,Zipcar,car_sharing,cars,Mount Pleasant
49.2744017,-123.1166652,,car_sharing,cars,Downtown
49.2795862,-123.0749371,Earnest Ice Cream,ice_cream,food/drink,Grandview-Woodland
49.249452,-123.0898806,Nammos Estiatorio,restaurant,food/drink,Kensington-Cedar Cottage
49.2498662,-123.0898679,Good Sushi,restaurant,food/drink,Kensington-Cedar Cottage
49.2497616,-123.0898772,Penang Bistro,restaurant,food/drink,Kensington-Cedar Cottage
49.249653,-123.0898834,Royal Fortune Szechuan Restaurant,restaurant,food/drink,Kensington-Cedar Cottage
49.2484965,-123.0899419,Subway,fast_food,food/drink,Kensington-Cedar Cottage
49.2477372,-123.0903665,Yummy Fat's,restaurant,food/drink,Riley Park
49.2475139,-123.0903789,Metropolitan Pharmacy,pharmacy,healthcare,Riley Park
49.2474538,-123.0900006,Prado Cafe,cafe,food/drink,Kensington-Cedar Cottage
49.246691,-123.0903554,JJ Bean Coffee Roasters,cafe,food/drink,Riley Park
49.2409756,-123.0901209,Family First Dental,dentist,healthcare,Kensington-Cedar Cottage
49.2809809,-123.0888583,Vancouver Public Library - nə́c̓aʔmat ct Strathcona Branch,library,arts/culture,Strathcona
49.2813486,-123.0917551,Downtown Eastside Neighbourhood House,community_centre,arts/culture,Strathcona
49.2882578,-123.1405916,Delanys Coffee,cafe,food/drink,West End
49.2883458,-123.1404577,Fatburger,restaurant,food/drink,West End
49.2885437,-123.1401479,Akira,restaurant,food/drink,West End
49.2889364,-123.1395296,Cacao 70,cafe,food/drink,West End
49.2888321,-123.1391981,HSBC,bank,money,West End
49.2889429,-123.1390161,Burger King,fast_food,food/drink,West End
49.227145,-123.0658652,MJ's Natural Pharmacy,pharmacy,healthcare,Victoria-Fraserview
49.2274766,-123.0658644,Victoria Drive Dental Clinic,dentist,healthcare,Victoria-Fraserview
49.2327351,-123.023744,iGame Arena,cafe,food/drink,Renfrew-Collingwood
49.2321796,-123.0301088,Sing Kee Restaurant,restaurant,food/drink,Renfrew-Collingwood
49.2320493,-123.0262792,Sugar Loop by Westcoast Darts Cafe,cafe,food/drink,Killarney
49.2320583,-123.0260791,Icy Bar,restaurant,food/drink,Killarney
49.2634876,-123.1152419,RBC,bank,money,Fairview
49.2060719,-123.125509,McDonald's,fast_food,food/drink,Marpole
49.2302196,-123.0908245,Angel Cafe,restaurant,food/drink,Sunset
49.2304939,-123.0908129,Khalsa Credit Union,bank,money,Sunset
49.2313066,-123.090415,South Hill Neighbourhood Centre,community_centre,arts/culture,Sunset
49.2321981,-123.0903909,Boba Monster,cafe,food/drink,Sunset
49.2322594,-123.0903936,Green Leaf Bubble Tea,cafe,food/drink,Sunset
49.2252584,-123.0903841,Sushi Moon,restaurant,food/drink,Sunset
49.2251518,-123.0904703,Starbucks,cafe,food/drink,Sunset
49.2248465,-123.0909786,Shoom Restaurant,restaurant,food/drink,Sunset
49.2248519,-123.0905874,Rexall,pharmacy,healthcare,Sunset
49.2246588,-123.0909787,Yu Xiang Yuan Restaurant,restaurant,food/drink,Sunset
49.2262041,-123.090544,Samurai Sushi on Fraser,restaurant,food/drink,Sunset
49.2261216,-123.0909384,State Bank of India,bank,money,Sunset
49.2266243,-123.0909127,BMO,bank,money,Sunset
49.2269023,-123.0909098,HSBC,bank,money,Sunset
49.227687,-123.0904914,Deer Garden Signatures,restaurant,food/drink,Sunset
49.2279638,-123.0904887,Ho Yuen Kee Restaurant,restaurant,food/drink,Sunset
49.229274,-123.090478,Dockers Family Restaurant,restaurant,food/drink,Sunset
49.240749,-123.1016806,Innocent Ice Cream,ice_cream,food/drink,Riley Park
49.2411883,-123.1016542,Sushi Hub,restaurant,food/drink,Riley Park
49.2430107,-123.1011575,Pharmasave,pharmacy,healthcare,Riley Park
49.2434136,-123.1011851,Pho Tan Restaurant,restaurant,food/drink,Riley Park
49.244604,-123.1011026,King's Chinese Cuisine,restaurant,food/drink,Riley Park
49.2458651,-123.1014424,Dream Sushi,restaurant,food/drink,Riley Park
49.2570082,-123.1148128,Nabebugyo Hot Pot Cuisine,restaurant,food/drink,Mount Pleasant
49.2505192,-123.0764488,Falafel Cafe,cafe,food/drink,Kensington-Cedar Cottage
49.2507344,-123.0768216,Sun Bo Kong Vegetarian Restaurant,restaurant,food/drink,Kensington-Cedar Cottage
49.2511829,-123.0784268,Grace of India,restaurant,food/drink,Kensington-Cedar Cottage
49.2510662,-123.0786825,Domino's,fast_food,food/drink,Kensington-Cedar Cottage
49.2511789,-123.0789198,Hai Phong Vietnamese Restaurant,restaurant,food/drink,Kensington-Cedar Cottage
49.2516531,-123.0796219,Hoy's Wonton House,restaurant,food/drink,Kensington-Cedar Cottage
49.2542839,-123.0850295,BT Cafe,cafe,food/drink,Kensington-Cedar Cottage
49.2573892,-123.0909119,Osteria Savio Volpe,restaurant,food/drink,Mount Pleasant
49.2574262,-123.0910754,Los Cuervos Taqueria & Cantina,restaurant,food/drink,Mount Pleasant
49.2572676,-123.0898844,The Lion's Den Cafe,restaurant,food/drink,Mount Pleasant
49.2572851,-123.0901365,Matchstick Coffee Roasters,cafe,food/drink,Mount Pleasant
49.277504,-123.1264645,,car_sharing,cars,Downtown
49.2791098,-123.1188899,,car_sharing,cars,Downtown
49.279359,-123.1182386,,car_sharing,cars,Downtown
49.2793142,-123.1184243,,car_sharing,cars,Downtown
49.2723414,-123.1004578,,car_sharing,cars,Mount Pleasant
49.2724643,-123.1005757,,car_sharing,cars,Mount Pleasant
49.2332919,-123.1561315,Vancouver Public Library Kerrisdale Branch,library,arts/culture,Kerrisdale
49.2105091,-123.1069,Starbucks,cafe,food/drink,Marpole
49.2814408,-123.0338301,,charging_station,cars,Hastings-Sunrise
49.2863928,-123.0435344,ChargePoint,charging_station,cars,Hastings-Sunrise
49.2866651,-123.11834,JOEY Bentall One,restaurant,food/drink,Downtown
49.2457475,-123.0660233,Viva Sushi Bar,restaurant,food/drink,Kensington-Cedar Cottage
49.2461626,-123.0676802,Pharmasave,pharmacy,healthcare,Kensington-Cedar Cottage
49.2473186,-123.0694396,Jarrito Loco Tacos,restaurant,food/drink,Kensington-Cedar Cottage
49.2472767,-123.0693382,My Chau Restaurant,restaurant,food/drink,Kensington-Cedar Cottage
49.249366,-123.0763485,J.R Taste Of Ceylon,restaurant,food/drink,Kensington-Cedar Cottage
49.2496541,-123.0763345,Knight Street Cafe,restaurant,food/drink,Kensington-Cedar Cottage
49.2493186,-123.0736284,Pink Peppercorn Seafood House,restaurant,food/drink,Kensington-Cedar Cottage
49.2493978,-123.0739174,Icy Bar,restaurant,food/drink,Kensington-Cedar Cottage
49.231433,-123.0316383,Panago Pizza,fast_food,food/drink,Killarney
49.2805588,-123.1169062,Cafe Medina,cafe,food/drink,Downtown
49.2790584,-123.1230287,The Belmont,bar,food/drink,Downtown
49.2792503,-123.1194358,Sina,pharmacy,healthcare,Downtown
49.280779,-123.1250884,Pattison High School,school,education/childcare,Downtown
49.2789348,-123.121852,Aarm Dental Group,dentist,healthcare,Downtown
49.2809406,-123.1269099,Beyond Coffee,cafe,food/drink,West End
49.2789073,-123.1221767,Uncle Fatih's Pizza,fast_food,food/drink,Downtown
49.2810223,-123.1189956,Meat & Bread,restaurant,food/drink,Downtown
49.280548,-123.1213662,McDonald's,fast_food,food/drink,Downtown
49.280963,-123.1189157,Aladdin Cafe,restaurant,food/drink,Downtown
49.28109,-123.1190968,Five Guys,fast_food,food/drink,Downtown
49.2616326,-123.0700247,Commercial Sushi,restaurant,food/drink,Kensington-Cedar Cottage
49.2800677,-123.1085277,Pizzeria Ludica,restaurant,food/drink,Downtown
49.2796239,-123.1086071,Hai Phong,restaurant,food/drink,Downtown
49.2808958,-123.1078452,Tsuki Sushi Bar,restaurant,food/drink,Downtown
49.2616851,-123.0700316,Subway,fast_food,food/drink,Kensington-Cedar Cottage
49.2615903,-123.0700291,Maggie's Pharmacy,pharmacy,healthcare,Kensington-Cedar Cottage
49.2625624,-123.0695251,Blenz Coffee,cafe,food/drink,Grandview-Woodland
49.2800297,-123.1086595,Brothers,cafe,food/drink,Downtown
49.2807869,-123.1078361,Taishoken,restaurant,food/drink,Downtown
49.2805834,-123.1028286,Musette Caffè,cafe,food/drink,Downtown
49.2737741,-123.0521883,Community Book Exchange,public_bookcase,arts/culture,Hastings-Sunrise
49.2831516,-123.1154178,A&W,fast_food,food/drink,Downtown
49.2810728,-123.118583,Ryuu,restaurant,food/drink,Downtown
49.2814129,-123.1161159,Pacific Car Rentals,car_rental,cars,Downtown
49.2820489,-123.118486,Starbucks,cafe,food/drink,Downtown
49.2827779,-123.1116632,Finch's,cafe,food/drink,Downtown
49.2792876,-123.1226649,Hungry Guys,fast_food,food/drink,Downtown
49.2774158,-123.1255337,Wings,restaurant,food/drink,Downtown
49.2725841,-123.1479944,Juliet's Cafe,cafe,food/drink,Kitsilano
49.2725937,-123.1484867,Flying Wedge Pizza,fast_food,food/drink,Kitsilano
49.2725847,-123.1487051,Planet Veg,fast_food,food/drink,Kitsilano
49.2725886,-123.1483117,Vera's Burger Shack,fast_food,food/drink,Kitsilano
49.2725841,-123.1486132,Panne Rizo,cafe,food/drink,Kitsilano
49.2725892,-123.1488841,Bean Around the World,cafe,food/drink,Kitsilano
49.2727685,-123.1473817,Kits Point Dental Group,dentist,healthcare,Kitsilano
49.2725828,-123.1485578,Al Basha,fast_food,food/drink,Kitsilano
49.2725892,-123.1487921,Corduroy,pub,food/drink,Kitsilano
49.2726099,-123.1491431,Charqui Grill,restaurant,food/drink,Kitsilano
49.2727615,-123.147457,Cypress St Animal Hospital,veterinary,healthcare,Kitsilano
49.2727038,-123.1472939,Siegel's Bagels,fast_food,food/drink,Kitsilano
49.2724816,-123.1545482,Thai Basil,restaurant,food/drink,Kitsilano
49.2733132,-123.11993,Starbucks,cafe,food/drink,Downtown
49.2848692,-123.1109875,Steamworks,pub,food/drink,Downtown
49.2821143,-123.1181656,London Drugs,pharmacy,healthcare,Downtown
49.2819996,-123.1177434,Scotiabank,bank,money,Downtown
49.290842,-123.1342117,YiFang Taiwan Fruit Tea,cafe,food/drink,West End
49.2912755,-123.1354024,Vancity,bank,money,West End
49.260901,-123.139202,Heirloom,restaurant,food/drink,Fairview
49.233909,-123.15367,Ajisai Sushi Bar,restaurant,food/drink,Kerrisdale
49.2582457,-123.1396559,Pentecostal Tabernacle,place_of_worship,arts/culture,Fairview
49.2723148,-123.1551667,Nimby Burger,fast_food,food/drink,Kitsilano
49.272446,-123.1553117,Local Public Eatery,pub,food/drink,Kitsilano
49.2716021,-123.155352,The Ellis,pub,food/drink,Kitsilano
49.2352507,-123.1557393,Subway,fast_food,food/drink,Arbutus Ridge
49.2356695,-123.1557823,Kerrisdale Pharmacy,pharmacy,healthcare,Arbutus Ridge
49.2354571,-123.1560864,Secret Garden Tea Company,cafe,food/drink,Arbutus Ridge
49.2360088,-123.1556952,China Lan Lanzhou Beef Noodle,restaurant,food/drink,Arbutus Ridge
49.2376572,-123.1556393,White Spot,restaurant,food/drink,Arbutus Ridge
49.2374525,-123.1556357,Bufala,restaurant,food/drink,Arbutus Ridge
49.2379505,-123.1556108,Comebuy Bubble Tea,cafe,food/drink,Arbutus Ridge
49.2377976,-123.1556386,Sushi King House,restaurant,food/drink,Arbutus Ridge
49.2346965,-123.1564381,Jinya Ramen Bar,restaurant,food/drink,Arbutus Ridge
49.2344956,-123.1573182,Caffè Artigiano,cafe,food/drink,Kerrisdale
49.2344715,-123.1593632,Legato Cafe,cafe,food/drink,Kerrisdale
49.2347686,-123.1616606,Minerva,restaurant,food/drink,Arbutus Ridge
49.2350698,-123.1615131,One Bowl,cafe,food/drink,Arbutus Ridge
49.2343745,-123.1615078,Jin Jiang Japanese Restaurant,restaurant,food/drink,Kerrisdale
49.2345339,-123.161902,Lok's Chinese Restaurant,restaurant,food/drink,Kerrisdale
49.2344778,-123.1605904,Starbucks,cafe,food/drink,Kerrisdale
49.2362672,-123.1851138,Moki's Pizza,restaurant,food/drink,Dunbar-Southlands
49.2576333,-123.1849267,Pure Integrative Pharmacy,pharmacy,healthcare,Dunbar-Southlands
49.2577685,-123.1857254,Dunbar Sushi,restaurant,food/drink,Dunbar-Southlands
49.2645248,-123.1845754,Taste of Thai,restaurant,food/drink,Kitsilano
49.2636616,-123.187105,Rajio Japanese Public House,restaurant,food/drink,West Point Grey
49.2633833,-123.1866515,NOURISH,cafe,food/drink,West Point Grey
49.2638921,-123.2035965,West 10th Medical Pharmacy,pharmacy,healthcare,West Point Grey
49.263878,-123.205001,Subway,fast_food,food/drink,West Point Grey
49.2638982,-123.2058958,Enigma Urban Eatery & Bar,restaurant,food/drink,West Point Grey
49.2639234,-123.2061777,Tim Hortons,cafe,food/drink,West Point Grey
49.263934,-123.2063879,Ginger & Chili,restaurant,food/drink,West Point Grey
49.2636669,-123.2051855,Figaro Café + Bakery,cafe,food/drink,West Point Grey
49.2636951,-123.2067722,Takumi Japanese Restaurant,restaurant,food/drink,West Point Grey
49.263672,-123.20716,Burgoo,restaurant,food/drink,West Point Grey
49.2634614,-123.2089127,The Kitchen,restaurant,food/drink,West Point Grey
49.2637428,-123.2104101,Pizza Hut,restaurant,food/drink,West Point Grey
49.2637147,-123.2108476,The Diner,restaurant,food/drink,West Point Grey
49.2636844,-123.2081906,Darcy's Cafe,cafe,food/drink,West Point Grey
49.2637023,-123.2077053,Dentry's Irish Grill,restaurant,food/drink,West Point Grey
49.2639253,-123.2073519,DoDo Sushi,restaurant,food/drink,West Point Grey
49.250421,-123.034043,Lucky Plus Restaurant,restaurant,food/drink,Renfrew-Collingwood
49.2621251,-123.0296212,Happy Valley Dim Sum Seafood Restaurant,restaurant,food/drink,Renfrew-Collingwood
49.2630462,-123.1159688,Chipotle,fast_food,food/drink,Fairview
49.2887562,-123.1150926,Bellaggio Café & Gelateria,cafe,food/drink,Downtown
49.2826694,-123.1313535,,car_sharing,cars,West End
49.2608512,-123.1161648,A&W,fast_food,food/drink,Fairview
49.2611173,-123.1168568,Blanche Macdonald Centre,college,education/childcare,Fairview
49.2495735,-123.1151905,Pharmasave,pharmacy,healthcare,Riley Park
49.2710268,-123.1466969,Blue Sky Japanese Bistro Ltd,restaurant,food/drink,Kitsilano
49.2786045,-123.1184591,Per Se Social Corner,restaurant,food/drink,Downtown
49.2764803,-123.1148881,On Yogurt,restaurant,food/drink,Downtown
49.2806424,-123.1312774,Fit Camp Foods,fast_food,food/drink,West End
49.2108202,-123.0934412,Intercity Animal Emergency Clinic,veterinary,healthcare,Sunset
49.2646882,-123.1112692,Vancouver Animal Emergency and Referral Centre,veterinary,healthcare,Mount Pleasant
49.2885009,-123.1391648,3 Quarters Full Cafe,cafe,food/drink,West End
49.290566,-123.1370567,Kingyo,restaurant,food/drink,West End
49.2769468,-123.130652,Anchor Point Montesorri,school,education/childcare,Downtown
49.2499348,-123.1157161,West King Edward Animal Clinic,veterinary,healthcare,South Cambie
49.2782909,-123.1241919,Donnelan's,pub,food/drink,Downtown
49.2070741,-123.1342324,chART Public Art Marpole,public_bookcase,arts/culture,Marpole
49.2382584,-123.0321227,,vending_machine,food/drink,Renfrew-Collingwood
49.2381936,-123.0320784,,vending_machine,food/drink,Renfrew-Collingwood
49.2380467,-123.0316644,,vending_machine,food/drink,Renfrew-Collingwood
49.2380347,-123.0318126,,vending_machine,food/drink,Renfrew-Collingwood
49.2339074,-123.1392007,Esso,fuel,cars,Oakridge
49.234497,-123.1392908,HSBC,bank,money,Shaughnessy
49.23414,-123.1399405,Grand Honour,restaurant,food/drink,Kerrisdale
49.2850193,-123.1145937,Quantum Coffee,cafe,food/drink,Downtown
49.2773691,-123.1197879,RBC,bank,money,Downtown
49.2824055,-123.1111441,The Magnet,pub,food/drink,Downtown
49.282596,-123.1119502,Osteria Autostrada,restaurant,food/drink,Downtown
49.2818319,-123.1234128,Boston Pizza,restaurant,food/drink,Downtown
49.2787028,-123.1302045,Maple Leaf Delicatessen Coffe Shop,cafe,food/drink,West End
49.2820073,-123.1229687,Hubbub,restaurant,food/drink,Downtown
49.2807616,-123.1248877,Sushi Maki,fast_food,food/drink,Downtown
49.2897674,-123.1378125,Bank of Montreal,bank,money,West End
49.291775200000004,-123.1383676,Adesso,restaurant,food/drink,West End
49.2916513,-123.1354557,Starbucks,cafe,food/drink,West End
49.2918102,-123.1351892,Tetsu Sushi Bar,restaurant,food/drink,West End
49.2885782,-123.1426441,Sylvia's Bar,bar,food/drink,West End
49.2634035,-123.1872815,Sushi Gallery,restaurant,food/drink,West Point Grey
49.2641812,-123.1840524,Handi,restaurant,food/drink,Kitsilano
49.264051,-123.1750528,Cafe D'Lite,restaurant,food/drink,Kitsilano
49.26404,-123.174703,Fringe,pub,food/drink,Kitsilano
49.2640525,-123.1748296,Ramen Sanpachi,restaurant,food/drink,Kitsilano
49.2637362,-123.2101399,Gold Train Express,restaurant,food/drink,West Point Grey
49.2640536,-123.1749099,,restaurant,food/drink,Kitsilano
49.2640436,-123.1741207,Acadia Veterinary Clinic,veterinary,healthcare,Kitsilano
49.2640299,-123.1745214,nuba,restaurant,food/drink,Kitsilano
49.2640168,-123.1733645,Neverland Tea Salon,cafe,food/drink,Kitsilano
49.2639931,-123.1718054,Footworks Relaxology,spa,arts/culture,Kitsilano
49.2639721,-123.1711478,Acropol Taverna,restaurant,food/drink,Kitsilano
49.2639753,-123.1713499,Quiznos,fast_food,food/drink,Kitsilano
49.2639522,-123.1695223,Tandoori Fusion,restaurant,food/drink,Kitsilano
49.2639533,-123.1696182,Yagger's Kits,pub,food/drink,Kitsilano
49.2639335,-123.1678232,Uncle Faith's Pizza,fast_food,food/drink,Kitsilano
49.2639326,-123.1676074,iki Japanese Bistro,restaurant,food/drink,Kitsilano
49.2635487,-123.1445336,Solace Dental Centre,dentist,healthcare,Fairview
49.2632325,-123.1364612,Bella Pizza,fast_food,food/drink,Fairview
49.2632564,-123.1276427,Barista Cafe,cafe,food/drink,Fairview
49.2633147,-123.1291653,Shi Zen ha,restaurant,food/drink,Fairview
49.2632624,-123.128343,Urban Dental Clinic,dentist,healthcare,Fairview
49.2632444,-123.1255405,Subway,fast_food,food/drink,Fairview
49.2632212,-123.1252438,Pondok,restaurant,food/drink,Fairview
49.2631809,-123.1221438,Donair Spot,restaurant,food/drink,Fairview
49.2628323,-123.1032243,Subway,fast_food,food/drink,Mount Pleasant
49.2622859,-123.0983705,Shoppers Drug Mart,pharmacy,healthcare,Mount Pleasant
49.2624087,-123.0952614,,pharmacy,healthcare,Mount Pleasant
49.2625523,-123.0693702,A&W,fast_food,food/drink,Grandview-Woodland
49.2628756,-123.0695249,Booster Juice,fast_food,food/drink,Grandview-Woodland
49.2626734,-123.0693702,Neptune Express,restaurant,food/drink,Grandview-Woodland
49.2627967,-123.0693624,Megabite Pizza,fast_food,food/drink,Grandview-Woodland
49.2625083,-123.0699403,Scotiabank,bank,money,Grandview-Woodland
49.238319,-123.0323183,Super Great Pizza,fast_food,food/drink,Renfrew-Collingwood
49.2902568,-123.1259247,,car_sharing,cars,Downtown
49.2901794,-123.1261344,,car_sharing,cars,Downtown
49.2902322,-123.1258652,,charging_station,cars,Downtown
49.2902046,-123.1260718,,car_sharing,cars,Downtown
49.2900017,-123.1261691,,car_sharing,cars,Downtown
49.2786363,-123.1372036,,charging_station,cars,West End
49.2266714,-123.0905213,Freshslice Pizza,fast_food,food/drink,Sunset
49.2317166,-123.0904136,L & G Bubble Tea,cafe,food/drink,Sunset
49.2269075,-123.0905378,Pho Hong Restaurant,restaurant,food/drink,Sunset
49.2110929,-123.1407058,Subway,fast_food,food/drink,Marpole
49.2802411,-123.1250614,Relish,pub,food/drink,Downtown
49.2807931,-123.1191954,Red Burrito,fast_food,food/drink,Downtown
49.2801081,-123.1251174,Gyu-Kaku,restaurant,food/drink,Downtown
49.2817816,-123.1117459,Java Cat,cafe,food/drink,Downtown
49.2800328,-123.1146849,Library Square Public House,pub,food/drink,Downtown
49.2590227,-123.1008347,Colony,bar,food/drink,Mount Pleasant
49.2777207,-123.1267774,Rorimomo,restaurant,food/drink,Downtown
49.2777827,-123.1268532,Truffles,cafe,food/drink,Downtown
49.2776264,-123.1290883,Aarm Dental Group,dentist,healthcare,Downtown
49.2838195,-123.1118877,Waves Coffee,cafe,food/drink,Downtown
49.2781239,-123.127351,Javan Exchange,bureau_de_change,money,Downtown
49.2684763,-123.1671204,The Oakwood,restaurant,food/drink,Kitsilano
49.2800673,-123.1259111,Wall Centre Dental,dentist,healthcare,Downtown
49.2856696,-123.1261568,Currency Exchange,bureau_de_change,money,West End
49.2835785,-123.1147762,ILSC,school,education/childcare,Downtown
49.2833711,-123.1145504,Peqish,fast_food,food/drink,Downtown
49.2845542,-123.1133241,Kita no Donburi,fast_food,food/drink,Downtown
49.283615,-123.1147065,MTI Community College,school,education/childcare,Downtown
49.2834954,-123.1149019,Pizza Vancouver,fast_food,food/drink,Downtown
49.2847736,-123.1220466,CIBC,bank,money,West End
49.2847964,-123.1243067,Sushi Yan,restaurant,food/drink,West End
49.2838527,-123.1143645,Chihuahua's,restaurant,food/drink,Downtown
49.2833401,-123.1146079,,school,education/childcare,Downtown
49.2846244,-123.1218388,Starbucks,cafe,food/drink,West End
49.2858242,-123.126404,London Drugs,pharmacy,healthcare,West End
49.282623,-123.109344,Meat & Bread,fast_food,food/drink,Downtown
49.2827131,-123.1093153,Fresh Bowl,fast_food,food/drink,Downtown
49.270944,-123.1552107,Chewies,pub,food/drink,Kitsilano
49.2531282,-123.0831059,Dai Tung,restaurant,food/drink,Kensington-Cedar Cottage
49.2833178,-123.1191002,Cafe Bel,cafe,food/drink,Downtown
49.2808593,-123.116349,,car_sharing,cars,Downtown
49.2809141,-123.1161117,,car_sharing,cars,Downtown
49.2643371,-123.1747924,,restaurant,food/drink,Kitsilano
49.264266,-123.1718556,I.ce Queen,ice_cream,food/drink,Kitsilano
49.2642652,-123.1718011,Pokay,restaurant,food/drink,Kitsilano
49.2642636,-123.1717479,Harvest Delicatessen,restaurant,food/drink,Kitsilano
49.2642602,-123.1716944,TeraVBurger,restaurant,food/drink,Kitsilano
49.2859796,-123.1189243,Banque Nacionale Canada,bank,money,Downtown
49.2895433,-123.1326652,,atm,money,West End
49.2854549,-123.127886,,car_sharing,cars,West End
49.2336682,-123.0345438,Sushi Aji,restaurant,food/drink,Renfrew-Collingwood
49.2318915,-123.02888,Happy Tree House BBQ,restaurant,food/drink,Killarney
49.2690014,-123.0445183,My Frosty,cafe,food/drink,Hastings-Sunrise
49.2684181,-123.0444669,Jiro Sushi & Ramen,restaurant,food/drink,Hastings-Sunrise
49.2634545,-123.1407716,Trees Organic,cafe,food/drink,Fairview
49.2636205,-123.1502883,Blenz Coffee,cafe,food/drink,Kitsilano
49.2636669,-123.1516697,,childcare,education/childcare,Kitsilano
49.2636452,-123.1534206,Gyo Para -Gyoza and Ramen Paradise,restaurant,food/drink,Kitsilano
49.2641802,-123.1574706,Hearts & Vine Cafe,cafe,food/drink,Kitsilano
49.2640449,-123.1567706,The Regal Beagle,pub,food/drink,Kitsilano
49.2642829,-123.1860874,Good Earth Coffeehouse,cafe,food/drink,West Point Grey
49.2678638,-123.1573505,Kokomo,cafe,food/drink,Kitsilano
49.2637179,-123.1549364,MacDonald's Prescriptions,pharmacy,healthcare,Kitsilano
49.2637136,-123.154762,Regent Dental Centre,dentist,healthcare,Kitsilano
49.2637118,-123.1546883,Yagoto Sushi Dining,restaurant,food/drink,Kitsilano
49.2637652,-123.1573383,IGA Bistro,cafe,food/drink,Kitsilano
49.2628679,-123.0569209,Phoenix Garden,restaurant,food/drink,Grandview-Woodland
49.2847804,-123.1227707,Thierry,cafe,food/drink,West End
49.2831953,-123.0949154,The MacKenzie Room,restaurant,food/drink,Strathcona
49.2509254,-123.077162,Dosa Factory,restaurant,food/drink,Kensington-Cedar Cottage
49.2756158,-123.1151739,Fresh Japanese Restaurant,restaurant,food/drink,Downtown
49.2274296,-123.1168286,Chatime,cafe,food/drink,Oakridge
49.2688201,-123.0967506,Truck Stop Diner,pub,food/drink,Strathcona
49.2896711,-123.1384396,Yeh!,fast_food,food/drink,West End
49.2896102,-123.1385336,A&W,fast_food,food/drink,West End
49.289715,-123.1383784,Peaked Pies,fast_food,food/drink,West End
49.2897561,-123.1383258,Panago,fast_food,food/drink,West End
49.2893869,-123.1388596,Tim Hortons,cafe,food/drink,West End
49.2622969,-123.0958568,Carp,restaurant,food/drink,Mount Pleasant
49.2881731,-123.14088,,car_sharing,cars,West End
49.2881158,-123.1407875,Zipcar,car_sharing,cars,West End
49.2817211,-123.1165551,Nosherie,cafe,food/drink,Downtown
49.239521,-123.1286511,Truffles Café,cafe,food/drink,Shaughnessy
49.2386541,-123.1298219,Shaughnessy Restaurant,restaurant,food/drink,Shaughnessy
49.2825798,-123.1343242,West End - Coal Harbour Community Policing,community_centre,arts/culture,West End
49.283625,-123.116121,Shoppers Drug Mart,pharmacy,healthcare,Downtown
49.2736081,-123.1185044,Bella Gelateria,ice_cream,food/drink,Downtown
49.2799326,-123.1302522,Banana Leaf,restaurant,food/drink,West End
49.2828822,-123.1037866,Shebeen Whiskey House,bar,food/drink,Downtown
49.277574,-123.1318508,Osaka Sushi,restaurant,food/drink,West End
49.2828919,-123.1040897,Irish Heather,pub,food/drink,Downtown
49.2828492,-123.1158635,Gotham,restaurant,food/drink,Downtown
49.2773055,-123.1160455,Global Village English Centers,school,education/childcare,Downtown
49.2635971,-123.1281244,Kaya Malay Bistro,restaurant,food/drink,Fairview
49.2550997,-123.1153648,JJ Bean,cafe,food/drink,South Cambie
49.2551419,-123.1148934,Rain or Shine Ice Cream,ice_cream,food/drink,Riley Park
49.2870647,-123.1128287,Miku,restaurant,food/drink,Downtown
49.2782532,-123.1218162,24 Train Express Noodle House,fast_food,food/drink,Downtown
49.2820553,-123.1335652,La Belle Patate,fast_food,food/drink,West End
49.2812088,-123.1319734,Gurkha Himalayan Kitchen,restaurant,food/drink,West End
49.2820205,-123.1204454,Bistro Verde,restaurant,food/drink,Downtown
49.279559,-123.1078428,Sushi Den,fast_food,food/drink,Downtown
49.2819445,-123.1076316,Noodle Box,fast_food,food/drink,Downtown
49.2816397,-123.1075252,Tacomio,fast_food,food/drink,Downtown
49.2821778,-123.107352,TD Canada Trust,bank,money,Downtown
49.2820098,-123.1080325,Catch 122,restaurant,food/drink,Downtown
49.2818025,-123.1074624,Vegan Cave,cafe,food/drink,Downtown
49.2819026,-123.1075035,Nectar,cafe,food/drink,Downtown
49.2819933,-123.1079737,Wildebeest,restaurant,food/drink,Downtown
49.2818951,-123.1074453,Prado,cafe,food/drink,Downtown
49.2815272,-123.0660535,Pelican Seafood Restaurant,restaurant,food/drink,Grandview-Woodland
49.2813515,-123.060021,Van Dragon Seafood Restaurant,restaurant,food/drink,Grandview-Woodland
49.2814517,-123.0638208,Volcano Sushi & Grill,restaurant,food/drink,Grandview-Woodland
49.2862256,-123.1161579,Edel Express,cafe,food/drink,Downtown
49.2835903,-123.111511,Bonchaz,cafe,food/drink,Downtown
49.2856543,-123.1147275,Caffè Artigiano,cafe,food/drink,Downtown
49.2845132,-123.114372,CoCo Fresh Tea & Juice,cafe,food/drink,Downtown
49.2825674,-123.1113699,Social Crust,cafe,food/drink,Downtown
49.2830665,-123.1126225,Ha Long Bay,restaurant,food/drink,Downtown
49.2838332,-123.113312,Kyzock - House of Sushi Bowl,fast_food,food/drink,Downtown
49.2839646,-123.1135104,Me Crêpes,fast_food,food/drink,Downtown
49.2840103,-123.1135799,2001 Flavors,fast_food,food/drink,Downtown
49.283201,-123.1123664,Yagger's,bar,food/drink,Downtown
49.2835821,-123.1129034,Moii Cafe,cafe,food/drink,Downtown
49.2836356,-123.1130258,Koala Kebabs,fast_food,food/drink,Downtown
49.2837054,-123.1131194,Cham Mani,fast_food,food/drink,Downtown
49.2841885,-123.1139212,Caveman Cafe,restaurant,food/drink,Downtown
49.2837386,-123.1131665,Sushi Spin Roll,fast_food,food/drink,Downtown
49.2838178,-123.1132808,Fresh Slice,fast_food,food/drink,Downtown
49.2840406,-123.1221606,Salam Bombay,restaurant,food/drink,West End
49.2838437,-123.1053674,The Old Spaghetti Factory,restaurant,food/drink,Downtown
49.2824356,-123.1142597,,car_sharing,cars,Downtown
49.2472428,-123.1854079,BMO Bank of Montreal,bank,money,Dunbar-Southlands
49.2696579,-123.1029057,Tractor,restaurant,food/drink,Mount Pleasant
49.2693966,-123.1029581,Starbucks,cafe,food/drink,Mount Pleasant
49.2694368,-123.103525,Brewhall,pub,food/drink,Mount Pleasant
49.2699059,-123.1030986,Mario's Gelato,ice_cream,food/drink,Mount Pleasant
49.2787379,-123.1338109,Zipcar,car_sharing,cars,West End
49.2800637,-123.1315625,,car_sharing,cars,West End
49.2619429,-123.103196,The Federal Store,cafe,food/drink,Mount Pleasant
49.2681235,-123.1017035,Nuba,restaurant,food/drink,Mount Pleasant
49.2439382,-123.0452788,,vending_machine,food/drink,Renfrew-Collingwood
49.2439667,-123.0453629,,vending_machine,food/drink,Renfrew-Collingwood
49.2444248,-123.0461362,,vending_machine,food/drink,Renfrew-Collingwood
49.2442355,-123.0463355,,vending_machine,food/drink,Renfrew-Collingwood
49.2663226,-123.1272706,,car_sharing,cars,Fairview
49.2725154,-123.1360606,,car_sharing,cars,Fairview
49.2796325,-123.1078508,Blenz,cafe,food/drink,Downtown
49.2822589,-123.1079679,London Drugs,pharmacy,healthcare,Downtown
49.2812723,-123.1077237,The Pint,pub,food/drink,Downtown
49.2846897,-123.0652949,JJ Bean,cafe,food/drink,Grandview-Woodland
49.2421002,-123.1134996,,vending_machine,food/drink,Riley Park
49.2750811,-123.1396933,,vending_machine,food/drink,Kitsilano
49.2420422,-123.1011291,Haiyi Seafood Restaurant,restaurant,food/drink,Riley Park
49.2777456,-123.0980833,Harvest Community Foods,cafe,food/drink,Strathcona
49.2802827,-123.1012535,New Town Bakery & Restaurant,restaurant,food/drink,Downtown
49.2714358,-123.1068353,Terra Breads,cafe,food/drink,Mount Pleasant
49.2817332,-123.0638566,Pallet Coffee Roasters,cafe,food/drink,Grandview-Woodland
49.281298,-123.0574622,platform 7 Coffee,cafe,food/drink,Grandview-Woodland
49.2850466,-123.0954451,Railtown Café,cafe,food/drink,Strathcona
49.2843293,-123.0955163,Belgard Kitchen,restaurant,food/drink,Strathcona
49.2841852,-123.0977401,Ask for Luigi,restaurant,food/drink,Strathcona
49.2828397,-123.089684,Ed’s Daily,cafe,food/drink,Strathcona
49.285251099999996,-123.1186391,Rue 909 Sushi,restaurant,food/drink,Downtown
49.2860889,-123.1163367,Tim Hortons,cafe,food/drink,Downtown
49.2851463,-123.1184912,Blackbird,pub,food/drink,Downtown
49.28166,-123.1270297,Vanwest College,college,education/childcare,West End
49.2728332,-123.069737,Storm Crow Tavern,bar,food/drink,Grandview-Woodland
49.2755415,-123.0996107,Bodega,restaurant,food/drink,Strathcona
49.2768852,-123.0754328,Take Five,cafe,food/drink,Grandview-Woodland
49.275519,-123.099626,Campagnolo,restaurant,food/drink,Strathcona
49.276004,-123.0996219,Torafuku,restaurant,food/drink,Strathcona
49.2624861,-123.0704967,Public Health Dental Health Program,dentist,healthcare,Grandview-Woodland
49.2918566,-123.134615,Motomachi Shokudo,restaurant,food/drink,West End
49.2902748,-123.1317492,Red Accordion,pub,food/drink,West End
49.2822367,-123.1092038,Donair Dude,fast_food,food/drink,Downtown
49.2832205,-123.1155257,Tim Hortons,cafe,food/drink,Downtown
49.2829884,-123.1156531,Starbucks,cafe,food/drink,Downtown
49.2766649,-123.1272005,Subway,fast_food,food/drink,Downtown
49.2768995,-123.1268568,The Morrissey,bar,food/drink,Downtown
49.2801028,-123.1181207,Bentoya,restaurant,food/drink,Downtown
49.2824032,-123.1085513,Simon Fraser University,university,education/childcare,Downtown
49.2823756,-123.1084859,Subway,fast_food,food/drink,Downtown
49.2809297,-123.1246212,Shizen Ya,restaurant,food/drink,Downtown
49.2622266,-123.044764,Basil Garden Pho,restaurant,food/drink,Hastings-Sunrise
49.2874551,-123.1289336,Ramen Danbo,restaurant,food/drink,West End
49.2682379,-123.1860064,Yuji's from Japan,restaurant,food/drink,West Point Grey
49.2826779,-123.1060827,Tuc Craft Kitchen,restaurant,food/drink,Downtown
49.2879187,-123.1404351,Zeitoon,restaurant,food/drink,West End
49.2855675,-123.1165611,Moose's Down Under,pub,food/drink,Downtown
49.25603,-123.114887,Dutch Wooden Shoe Cafe,restaurant,food/drink,Riley Park
49.2792456,-123.1168603,Ebi-Ten,restaurant,food/drink,Downtown
49.2813411,-123.1329394,Yummy Pizza,fast_food,food/drink,West End
49.2814237,-123.1330616,The Capital,bar,food/drink,West End
49.2806117,-123.1318361,Los Amigos Taqueria,fast_food,food/drink,West End
49.2805693,-123.1317681,Megabite Pizza,fast_food,food/drink,West End
49.2804768,-123.1316113,Vista Digital,internet_cafe,food/drink,West End
49.2813671,-123.1329957,Donair Dude,fast_food,food/drink,West End
49.2495635,-123.1012512,The Acorn,restaurant,food/drink,Riley Park
49.2499187,-123.1012388,The Arbor,restaurant,food/drink,Riley Park
49.2512087,-123.1012015,Vancouver Main Dental,dentist,healthcare,Riley Park
49.2506841,-123.1012022,Portland Craft,bar,food/drink,Riley Park
49.2702595,-123.1340523,Off the tracks bar & bistro,pub,food/drink,Fairview
49.2798985,-123.1121552,,car_sharing,cars,Downtown
49.2817195,-123.1393416,,car_sharing,cars,West End
49.2625175,-123.1352421,,car_sharing,cars,Fairview
49.2624016,-123.1274238,Zipcar,car_sharing,cars,Fairview
49.2818193,-123.1155123,Zipcar,car_sharing,cars,Downtown
49.2798638,-123.1262501,,car_sharing,cars,Downtown
49.2686943,-123.1186393,,atm,money,Fairview
49.2486397,-123.100827,Helen's Grill,restaurant,food/drink,Riley Park
49.2766479,-123.1256746,Manoush’eh,restaurant,food/drink,Downtown
49.2637188,-123.1087031,Milano Cafe,cafe,food/drink,Mount Pleasant
49.264456,-123.1387931,,car_sharing,cars,Fairview
49.2837114,-123.106243,The Lamplighter Public House,pub,food/drink,Downtown
49.262662399999996,-123.1141661,,car_sharing,cars,Mount Pleasant
49.2624543,-123.1137326,,charging_station,cars,Mount Pleasant
49.2626406,-123.1138547,,car_sharing,cars,Mount Pleasant
49.2624998,-123.1137717,,car_sharing,cars,Mount Pleasant
49.2626486,-123.1140174,,car_sharing,cars,Mount Pleasant
49.2625113,-123.1136974,,car_sharing,cars,Mount Pleasant
49.2623488,-123.1132159,,car_sharing,cars,Mount Pleasant
49.2606885,-123.1145885,,car_sharing,cars,Mount Pleasant
49.2656312,-123.1150585,Porto Café,cafe,food/drink,Fairview
49.2666761,-123.1161025,,car_sharing,cars,Fairview
49.226383,-123.0909753,Fraserview Dentist,dentist,healthcare,Sunset
49.2485436,-123.1266354,Starbucks,cafe,food/drink,South Cambie
49.2486124,-123.1252499,Mandarin Hong Kong Cafe,restaurant,food/drink,South Cambie
49.248523,-123.1254837,Kim Express,restaurant,food/drink,South Cambie
49.2485238,-123.1255358,City 1 cafe,restaurant,food/drink,South Cambie
49.287377,-123.1414211,Boaguette Vietnamese Bistro,fast_food,food/drink,West End
49.24655,-123.1270994,Congregation Beth Israel,place_of_worship,arts/culture,South Cambie
49.2465842,-123.1010258,Chickpea Restaurant,restaurant,food/drink,Riley Park
49.2861606,-123.1242068,The Keg Steakhouse + Bar Alberni Street,restaurant,food/drink,West End
49.2848663,-123.1148525,Rexall Drugstore,pharmacy,healthcare,Downtown
49.2890798,-123.1326293,Kosoo,restaurant,food/drink,West End
49.2681226,-123.1656481,The Only Cafe,cafe,food/drink,Kitsilano
49.2784435,-123.1143287,Black Rice Izakaya,restaurant,food/drink,Downtown
49.2869412,-123.1148363,Lions Pub,pub,food/drink,Downtown
49.2900633,-123.1378636,RBC,bank,money,West End
49.2814941,-123.0984116,Ovaltine Cafe,cafe,food/drink,Strathcona
49.2823168,-123.1239578,Sala Thai,restaurant,food/drink,Downtown
49.2865106,-123.1258963,JJ Bean,cafe,food/drink,West End
49.2813956,-123.1337089,Sushi Bar Maumi,restaurant,food/drink,West End
49.284876,-123.1246625,Joe Fortes,restaurant,food/drink,West End
49.285665,-123.1272801,Breka Bakery & Café,cafe,food/drink,West End
49.2868188,-123.1285213,Cafe Rico,cafe,food/drink,West End
49.2870412,-123.1283167,Tim Hortons,cafe,food/drink,West End
49.2857079,-123.1269916,Blossom Dim Sum & Grill,restaurant,food/drink,West End
49.2829671,-123.1105765,La Taqueria,restaurant,food/drink,Downtown
49.2541597,-123.1150037,Sushi 7 Japanese Bar & Grill,restaurant,food/drink,Riley Park
49.2542649,-123.1150049,Soho Tea Room,restaurant,food/drink,Riley Park
49.2543533,-123.1149873,Kino Cafe Flamenco Tapas Bar,bar,food/drink,Riley Park
49.2544714,-123.1149885,The Park Theatre,cinema,arts/culture,Riley Park
49.2558057,-123.1153793,Biercraft,pub,food/drink,South Cambie
49.2602981,-123.0700119,Jamaican Pizza Jerk,restaurant,food/drink,Kensington-Cedar Cottage
49.2598808,-123.0700269,Varadero Cafe,restaurant,food/drink,Kensington-Cedar Cottage
49.2519331,-123.0803514,Kingsway Deli,restaurant,food/drink,Kensington-Cedar Cottage
49.2683379,-123.069464,Cannibal Café,restaurant,food/drink,Grandview-Woodland
49.282101,-123.1045134,East Van Roasters,cafe,food/drink,Downtown
49.2809572,-123.0612347,Vietnam House,restaurant,food/drink,Grandview-Woodland
49.2850854,-123.125921,Zefferelli's Spaghetti Joint,restaurant,food/drink,West End
49.2885656,-123.1177149,Starbucks,cafe,food/drink,Downtown
49.2805525,-123.1020447,Bestie,restaurant,food/drink,Downtown
49.2810287,-123.118654,Blenz Coffee,cafe,food/drink,Downtown
49.2804382,-123.1181035,Tractor,restaurant,food/drink,Downtown
49.2328711,-123.0657264,Kokoro Ramen,restaurant,food/drink,Kensington-Cedar Cottage
49.238699,-123.0509163,Xing Fu Tang,cafe,food/drink,Renfrew-Collingwood
49.2593387,-123.0445903,Tim Hortons,cafe,food/drink,Renfrew-Collingwood
49.2775024,-123.2227417,Spanish Banks West Concession,fast_food,food/drink,West Point Grey
49.2684742,-123.1859648,A&W,fast_food,food/drink,West Point Grey
49.2684823,-123.1867573,Breka Bakery & Café,cafe,food/drink,West Point Grey
49.2682847,-123.1867206,Jericho Pharmacy & Health Food Store,pharmacy,healthcare,West Point Grey
49.2684715,-123.1853203,Irori Sushi,restaurant,food/drink,Kitsilano
49.26844,-123.1821901,Double DD Pizza,restaurant,food/drink,Kitsilano
49.2686885,-123.182622,Pure Integrative Pharmacy,pharmacy,healthcare,Kitsilano
49.2682499,-123.1690466,Linh Café,restaurant,food/drink,Kitsilano
49.2682482,-123.1687786,Raviolino,restaurant,food/drink,Kitsilano
49.2682531,-123.1677783,Nusa Coffee,cafe,food/drink,Kitsilano
49.2682325,-123.1667687,Healthy Noodle House,restaurant,food/drink,Kitsilano
49.2579533,-123.1678222,Zest Japanese Cuisine,restaurant,food/drink,Kitsilano
49.2579705,-123.1679754,La Glace,ice_cream,food/drink,Kitsilano
49.2487723,-123.1853877,Stong's Replenish Cafe,restaurant,food/drink,Dunbar-Southlands
49.2483679,-123.1850471,Wild Sushi,restaurant,food/drink,Dunbar-Southlands
49.2465989,-123.1854074,Cosy Inn Cafe,restaurant,food/drink,Dunbar-Southlands
49.2462956,-123.1853981,The Dunbar Public House,restaurant,food/drink,Dunbar-Southlands
49.2455783,-123.1854475,Dunbar Theatre,theatre,arts/culture,Dunbar-Southlands
49.2454947,-123.1854457,The Cheshire Cheese Inn,restaurant,food/drink,Dunbar-Southlands
49.2464996,-123.1854116,Starbucks,cafe,food/drink,Dunbar-Southlands
49.2466537,-123.1848644,Riya's Pizza,restaurant,food/drink,Dunbar-Southlands
49.2469916,-123.1850629,Sushi Inn,restaurant,food/drink,Dunbar-Southlands
49.2469076,-123.1850629,Mexicali,restaurant,food/drink,Dunbar-Southlands
49.2700562,-123.1030385,Amato Gelato & Cafè,cafe,food/drink,Mount Pleasant
49.2345507,-123.0362568,COCO Fresh Tea & Juice,cafe,food/drink,Renfrew-Collingwood
49.266479,-123.1386694,Cheesecake etc.,restaurant,food/drink,Fairview
49.2349593,-123.0371824,Jambo Grill,restaurant,food/drink,Renfrew-Collingwood
49.2913001,-123.1348958,Saku,restaurant,food/drink,West End
49.2861996,-123.1264976,Damso,restaurant,food/drink,West End
49.2786259,-123.1160142,Original Joe's,restaurant,food/drink,Downtown
49.2786063,-123.1168579,Patisserie Fur Elise,restaurant,food/drink,Downtown
49.2785018,-123.1156293,Subway,fast_food,food/drink,Downtown
49.2785979,-123.1158033,Russet Shack,fast_food,food/drink,Downtown
49.2786375,-123.115902,Jenjudan,cafe,food/drink,Downtown
49.2782724,-123.1154033,Pure Integrative Pharmacy,pharmacy,healthcare,Downtown
49.2827913,-123.1272689,,car_sharing,cars,West End
49.2829888,-123.0959146,HAVE cafe,cafe,food/drink,Strathcona
49.264166,-123.1239861,collège Educacentre,school,education/childcare,Fairview
49.2814695,-123.1397942,,charging_station,cars,West End
49.2876052,-123.1242165,Ashton College,college,education/childcare,Downtown
49.2643156,-123.1741704,Kitstaya Sushi,restaurant,food/drink,Kitsilano
49.2497907,-123.1151843,YiFang Taiwan Fruit Tea,cafe,food/drink,Riley Park
49.2329446,-123.0653099,Tim Hortons,cafe,food/drink,Kensington-Cedar Cottage
49.2686089,-123.1584322,,atm,money,Kitsilano
49.2685203,-123.1706945,Bangkok City Cafe,restaurant,food/drink,Kitsilano
49.2685192,-123.1706435,Nishi Restaurant,restaurant,food/drink,Kitsilano
49.2685192,-123.170387,Bayswater Dental Group,dentist,healthcare,Kitsilano
49.2630491,-123.1124051,Heritage Asian Eatery,restaurant,food/drink,Mount Pleasant
49.286296899999996,-123.1277327,Meet Fresh Robson,cafe,food/drink,West End
49.2792607,-123.0931409,PTT Buddhist Temple,place_of_worship,arts/culture,Strathcona
49.2696855,-123.1068061,Olympic Village Dental,dentist,healthcare,Mount Pleasant
49.2707434,-123.1069174,Dentist @ False Creek,dentist,healthcare,Mount Pleasant
49.288481,-123.139744,Gillaneh Restaurant,restaurant,food/drink,West End
49.2611822,-123.0690922,,car_sharing,cars,Kensington-Cedar Cottage
49.2772848,-123.1181599,,car_sharing,cars,Downtown
49.2785781,-123.1144596,,car_sharing,cars,Downtown
49.2575621,-123.1148455,Vij's,restaurant,food/drink,Mount Pleasant
49.2781965,-123.1133537,Frankie’s Italian Kitchen & Bar,restaurant,food/drink,Downtown
49.2762561,-123.1155406,Pho Khanh,restaurant,food/drink,Downtown
49.276166,-123.1157038,7Days Coffee,cafe,food/drink,Downtown
49.2623234,-123.0912759,Sushi Loku,restaurant,food/drink,Mount Pleasant
49.2828897,-123.1230681,Basil Box,fast_food,food/drink,Downtown
49.2850423,-123.1205667,Starbucks,cafe,food/drink,Downtown
49.2828886,-123.12373,Boulevard Kitchen & Oyster Bar,restaurant,food/drink,West End
49.2841391,-123.1142912,Burger King,fast_food,food/drink,Downtown
49.2842663,-123.1144275,Gyoza Bar,restaurant,food/drink,Downtown
49.277133,-123.1296758,Starbucks,cafe,food/drink,Downtown
49.2770164,-123.1248993,Vancouver International Film Centre,cinema,arts/culture,Downtown
49.263404,-123.1162261,Marble Slab Creamery,ice_cream,food/drink,Fairview
49.285769,-123.1247049,Neptune Chinese Kitchen,restaurant,food/drink,West End
49.2853887,-123.1229586,Urban Tea Merchant,cafe,food/drink,West End
49.2856601,-123.1210867,Victoria Chinese Restaurant,restaurant,food/drink,Downtown
49.2820786,-123.1340707,Ho Ho's Yummy Food,cafe,food/drink,West End
49.2821447,-123.1337057,Davie Dosa Company,restaurant,food/drink,West End
49.282131,-123.1341558,Sumac Cafe,cafe,food/drink,West End
49.2819972,-123.1334555,Downtown Sushi Bar,restaurant,food/drink,West End
49.2822483,-123.1343416,Melriches Coffee House,cafe,food/drink,West End
49.2821643,-123.1342101,Davie Dental Clinic,dentist,healthcare,West End
49.2822628,-123.1337681,Guu Davie,pub,food/drink,West End
49.2818284,-123.1336764,Al Basha,restaurant,food/drink,West End
49.2817505,-123.1335605,Mary's on Davie,cafe,food/drink,West End
49.2823322,-123.1345615,Score,bar,food/drink,West End
49.2819635,-123.1333845,Blenz Coffee,cafe,food/drink,West End
49.2706614,-123.069379,The Ugly Dumpling,restaurant,food/drink,Grandview-Woodland
49.2812416,-123.0858949,Red Gate Collective,theatre,arts/culture,Strathcona
49.2722284,-123.1551219,Nook,restaurant,food/drink,Kitsilano
49.271079,-123.15519,Lucky Taco,restaurant,food/drink,Kitsilano
49.2706709,-123.1009108,Main Street Dental,dentist,healthcare,Mount Pleasant
49.2705306,-123.1009131,The Powerhouse Chiropractic,doctors,healthcare,Mount Pleasant
49.270278,-123.1009161,Emerald Dental,dentist,healthcare,Mount Pleasant
49.2699809,-123.1009644,YYoung Medicine Mart,pharmacy,healthcare,Mount Pleasant
49.259672,-123.0435025,YMCA Child Care Renfrew Station,childcare,education/childcare,Renfrew-Collingwood
49.2627114,-123.09985,Poké Bar,fast_food,food/drink,Mount Pleasant
49.2627174,-123.1000189,Freshii,restaurant,food/drink,Mount Pleasant
49.2627235,-123.1001878,Starbucks,cafe,food/drink,Mount Pleasant
49.2707953,-123.0697877,The Dime,pub,food/drink,Grandview-Woodland
49.2708993,-123.0697877,Arriva Ristorante,restaurant,food/drink,Grandview-Woodland
49.2717056,-123.1366328,Vancouver Water Adventures,boat_rental,arts/culture,Fairview
49.2638682,-123.1006882,Gene,cafe,food/drink,Mount Pleasant
49.2630349,-123.1012046,Bento Box,restaurant,food/drink,Mount Pleasant
49.2629465,-123.0967703,Thai Son,restaurant,food/drink,Mount Pleasant
49.2636427,-123.1005034,Budgies Burritos,fast_food,food/drink,Mount Pleasant
49.2635921,-123.1015666,Nice Cafe,restaurant,food/drink,Mount Pleasant
49.2621476,-123.1007434,Ignite Pizzeria,restaurant,food/drink,Mount Pleasant
49.2642773,-123.100343,Mount Pleasant Branch,library,arts/culture,Mount Pleasant
49.2604069,-123.1007569,Chevron,fuel,cars,Mount Pleasant
49.2571036,-123.1008894,Five Point,pub,food/drink,Mount Pleasant
49.2568815,-123.1009868,Caffè Mira,cafe,food/drink,Mount Pleasant
49.256651,-123.101744,Toshi,restaurant,food/drink,Mount Pleasant
49.2558002,-123.1015599,Public House,restaurant,food/drink,Riley Park
49.254976,-123.1008716,Anh And Chi,restaurant,food/drink,Riley Park
49.255527,-123.101061,Nikkyu Japanese Restaurant,restaurant,food/drink,Riley Park
49.2750615,-123.0996424,The Ivanhoe,pub,food/drink,Strathcona
49.2731669,-123.1014151,,atm,money,Downtown
49.2777282,-123.0971626,Hunnybee Bruncheonette,restaurant,food/drink,Strathcona
49.2773052,-123.0869116,Union Market,cafe,food/drink,Strathcona
49.262793,-123.100811,,car_sharing,cars,Mount Pleasant
49.2457056,-123.0659163,Green Lettuce,restaurant,food/drink,Kensington-Cedar Cottage
49.280931,-123.1323047,Pho Goodness,fast_food,food/drink,West End
49.263541,-123.1451004,Happy Lamp Hot Pot,restaurant,food/drink,Fairview
49.278388,-123.099578,London Pub,pub,food/drink,Strathcona
49.2783793,-123.0981941,Phnom Penh Restaurant,restaurant,food/drink,Strathcona
49.2534133,-123.0820889,Ken's Kitchen,restaurant,food/drink,Kensington-Cedar Cottage
49.2692484,-123.1459879,Pho Royal,fast_food,food/drink,Kitsilano
49.2682869,-123.1561137,Vancity,bank,money,Kitsilano
49.2680554,-123.155833,Simpatico,restaurant,food/drink,Kitsilano
49.2680641,-123.1567004,Starbucks,cafe,food/drink,Kitsilano
49.2681152,-123.1595834,Peaceful Restaurant,restaurant,food/drink,Kitsilano
49.2681046,-123.1582908,Raisu,restaurant,food/drink,Kitsilano
49.2681142,-123.1594275,BMO,bank,money,Kitsilano
49.2681549,-123.1466069,Seaside Dental Centre,dentist,healthcare,Kitsilano
49.2681518,-123.1463206,Pizza Hut,restaurant,food/drink,Kitsilano
49.2680758,-123.1569876,Au Comptoir,restaurant,food/drink,Kitsilano
49.2684493,-123.1566826,La Vita Dental,dentist,healthcare,Kitsilano
49.2680714,-123.1568116,Burgoo,restaurant,food/drink,Kitsilano
49.268165,-123.1469026,MacFalafel,fast_food,food/drink,Kitsilano
49.2681552,-123.146718,Pharmasave,pharmacy,healthcare,Kitsilano
49.2680988,-123.1580755,Maria's Taverna,restaurant,food/drink,Kitsilano
49.2683578,-123.1595125,McDonald's,fast_food,food/drink,Kitsilano
49.2683613,-123.159255,Accord Dental,dentist,healthcare,Kitsilano
49.2693988,-123.1459745,WEEDS,cafe,food/drink,Kitsilano
49.2680344,-123.1548186,49th Parallel & Lucky's Doughnuts Cafe,cafe,food/drink,Kitsilano
49.2681956,-123.1484606,Spoon Kitchen,restaurant,food/drink,Kitsilano
49.2681942,-123.1484005,TD Canada Trust,bank,money,Kitsilano
49.2682808,-123.1540137,Jam Café,cafe,food/drink,Kitsilano
49.2680301,-123.1545679,Glory Juice,fast_food,food/drink,Kitsilano
49.2683097,-123.1546683,Bishop's,restaurant,food/drink,Kitsilano
49.2679451,-123.1494499,Jitters Cafe,cafe,food/drink,Kitsilano
49.267943,-123.1492741,Doner Kebab,fast_food,food/drink,Kitsilano
49.268201,-123.1486188,Freshii,restaurant,food/drink,Kitsilano
49.2682731,-123.1536977,Connie's Cook House,restaurant,food/drink,Kitsilano
49.2681756,-123.1481478,Tractor,restaurant,food/drink,Kitsilano
49.2679249,-123.1488035,Arbutus North Dental,dentist,healthcare,Kitsilano
49.2679235,-123.1486541,Rain or Shine,ice_cream,food/drink,Kitsilano
49.2681941,-123.1482346,Fourth Avenue Dental Clinic,dentist,healthcare,Kitsilano
49.267943,-123.1493262,Sejuiced,fast_food,food/drink,Kitsilano
49.2682306,-123.1517425,Sushi Nova,restaurant,food/drink,Kitsilano
49.2682195,-123.1508793,Crêpe Café,cafe,food/drink,Kitsilano
49.2682348,-123.1518413,Nelly's Grill,restaurant,food/drink,Kitsilano
49.2679785,-123.1514269,Their There,restaurant,food/drink,Kitsilano
49.2682334,-123.1515788,TurF,restaurant,food/drink,Kitsilano
49.2680039,-123.1525845,CIBC,bank,money,Kitsilano
49.2738934,-123.1327757,Ancora,restaurant,food/drink,Downtown
49.2834375,-123.10443,Peckinpah,restaurant,food/drink,Downtown
49.2766922,-123.1202664,The Parlour,restaurant,food/drink,Downtown
49.273765,-123.0752492,Electric Company Theatre,theatre,arts/culture,Grandview-Woodland
49.2776864,-123.116068,Grounds for Appeal,restaurant,food/drink,Downtown
49.2491728,-123.1148407,Cambie Dental Centre,dentist,healthcare,Riley Park
49.2777096,-123.1309686,Number e Food,cafe,food/drink,Downtown
49.2812059,-123.104529,Iktsuarpok Coffee Stand,cafe,food/drink,Downtown
49.2879481,-123.1238127,SushiGo,restaurant,food/drink,Downtown
49.2680316,-123.1115966,Sweetery Cafe+Dessert,cafe,food/drink,Mount Pleasant
49.2769091,-123.1307701,RV's Butter Kitchen,restaurant,food/drink,Downtown
49.2693556,-123.0770717,Chevron Commercial Card Lock,fuel,cars,Grandview-Woodland
49.2615373,-123.0696114,Daddy's Kitchen,restaurant,food/drink,Kensington-Cedar Cottage
49.28049,-123.1316384,Taki's Taverna,restaurant,food/drink,West End
49.2629504,-123.0974611,Cafe D'Afrique,restaurant,food/drink,Mount Pleasant
49.2626043,-123.0823703,Rooster's Ice Cream Bar,ice_cream,food/drink,Mount Pleasant
49.2621894,-123.0741944,The Pizza King,fast_food,food/drink,Kensington-Cedar Cottage
49.263431,-123.1365721,Masa Japanese Restaurant,restaurant,food/drink,Fairview
49.2193445,-123.1177314,RBC,bank,money,Oakridge
49.2194146,-123.1182638,Dylan's,cafe,food/drink,Oakridge
49.2638113,-123.1049227,,vending_machine,food/drink,Mount Pleasant
49.2683908,-123.043984,Ding Tea,cafe,food/drink,Hastings-Sunrise
49.2627678,-123.0563725,Yook Korean Grilled BBQ and Bistro,restaurant,food/drink,Hastings-Sunrise
49.2591196,-123.0693498,Gojo Little Africa Cafe,restaurant,food/drink,Kensington-Cedar Cottage
49.2655902,-123.1003893,The Whip,bar,food/drink,Mount Pleasant
49.2328519,-123.1190993,Dr. Wilson Kwong Inc.,dentist,healthcare,Oakridge
49.280638,-123.1310878,Cazba,restaurant,food/drink,West End
49.2811705,-123.1204114,Burger King,fast_food,food/drink,Downtown
49.274665,-123.122111,Starbucks,cafe,food/drink,Downtown
49.2332549,-123.0347948,Papa John's,fast_food,food/drink,Killarney
49.2333359,-123.0347029,Gold Train Express Restaurant,restaurant,food/drink,Killarney
49.2802664,-123.1097483,Devil's Elbow,bar,food/drink,Downtown
49.2803078,-123.1096811,Jam Cafe,cafe,food/drink,Downtown
49.2695808,-123.1332986,Arts Umbrella,arts_centre,arts/culture,Fairview
49.2711552,-123.06939560000001,Sopra Sotto,restaurant,food/drink,Grandview-Woodland
49.2702991,-123.0694279,Libra Room,restaurant,food/drink,Grandview-Woodland
49.2890203,-123.1221386,JOS,restaurant,food/drink,Downtown
49.2877655,-123.1134374,National,car_rental,cars,Downtown
49.2785036,-123.1226093,,vending_machine,food/drink,Downtown
49.2781965,-123.122954,,vending_machine,food/drink,Downtown
49.2789851,-123.1164249,Le Petit Belge,cafe,food/drink,Downtown
49.2435959,-123.0623586,Happy Family Restaurant,restaurant,food/drink,Kensington-Cedar Cottage
49.2845626,-123.1084807,The Black Frog,pub,food/drink,Downtown
49.2845775,-123.1093205,Trees Organic Coffee,cafe,food/drink,Downtown
49.2847075,-123.1100401,MoMo Sushi,restaurant,food/drink,Downtown
49.2827611,-123.1096481,Nuba,restaurant,food/drink,Downtown
49.2825011,-123.1092466,Bean Around The World,cafe,food/drink,Downtown
49.2847649,-123.1210612,McDonald's,fast_food,food/drink,Downtown
49.2848332,-123.1209459,Tim Hortons,cafe,food/drink,Downtown
49.2402115,-123.0649324,Angkor Restaurant,restaurant,food/drink,Kensington-Cedar Cottage
49.240412,-123.0655441,Deutsches Haus Restaurant,restaurant,food/drink,Kensington-Cedar Cottage
49.2624776,-123.0702461,Uncle Fatih's,fast_food,food/drink,Grandview-Woodland
49.2621542,-123.0700558,BMO,bank,money,Kensington-Cedar Cottage
49.2621263,-123.0694756,CIBC,bank,money,Kensington-Cedar Cottage
49.2620177,-123.0695561,Alberto Pharmacy,pharmacy,healthcare,Kensington-Cedar Cottage
49.2617463,-123.0696025,McDonald's,fast_food,food/drink,Kensington-Cedar Cottage
49.2616597,-123.0696079,Quiznos,fast_food,food/drink,Kensington-Cedar Cottage
49.2615906,-123.0696065,Fresh Slice,fast_food,food/drink,Kensington-Cedar Cottage
49.2620273,-123.0700397,Starbucks,cafe,food/drink,Kensington-Cedar Cottage
49.2649351,-123.0694975,JJ Bean,cafe,food/drink,Grandview-Woodland
49.2678955,-123.0694445,Spade,restaurant,food/drink,Grandview-Woodland
49.2683984,-123.0698801,Park Drive,bar,food/drink,Grandview-Woodland
49.2689086,-123.0698532,Cafe Calabria,cafe,food/drink,Grandview-Woodland
49.2688079,-123.069416,Starbucks,cafe,food/drink,Grandview-Woodland
49.2685474,-123.0694037,Continental Coffee,cafe,food/drink,Grandview-Woodland
49.2684563,-123.0694073,Falconetti's,pub,food/drink,Grandview-Woodland
49.245058,-123.0653916,Pho Duy Vietnamese Restaurant,restaurant,food/drink,Kensington-Cedar Cottage
49.2875394,-123.1200147,Starbucks,cafe,food/drink,Downtown
49.269798,-123.0699194,Vancity,bank,money,Grandview-Woodland
49.2694887,-123.0694438,Red Burrito,fast_food,food/drink,Grandview-Woodland
49.2679231,-123.069879,Belgian Fries,restaurant,food/drink,Grandview-Woodland
49.2673932,-123.0694555,Fire Pizza,fast_food,food/drink,Grandview-Woodland
49.267464,-123.0694548,4 Brothers' Pizza,fast_food,food/drink,Grandview-Woodland
49.2637854,-123.0695196,St Augustine's,pub,food/drink,Grandview-Woodland
49.2694342,-123.0694395,Dive In Dessert Cafe,cafe,food/drink,Grandview-Woodland
49.2693155,-123.0698444,RBC,bank,money,Grandview-Woodland
49.2733734,-123.0693436,Oca Pastificio,restaurant,food/drink,Grandview-Woodland
49.2749646,-123.0707081,VPL Britannia Branch,library,arts/culture,Grandview-Woodland
49.2491218,-123.0756558,VPL Kensington Branch,library,arts/culture,Kensington-Cedar Cottage
49.2493758,-123.0750259,TD Canada Trust,bank,money,Kensington-Cedar Cottage
49.2446462,-123.0644833,Mui Ngo Gai,restaurant,food/drink,Kensington-Cedar Cottage
49.2388325,-123.0650972,Hoi An Cafe,cafe,food/drink,Kensington-Cedar Cottage
49.2382511,-123.0651615,Kawa Sushi,restaurant,food/drink,Kensington-Cedar Cottage
49.2647119,-123.1861243,True Confections,restaurant,food/drink,West Point Grey
49.285504,-123.118815,Cactus Club Cafe,restaurant,food/drink,Downtown
49.285292,-123.119384,Canadian Western Bank,bank,money,Downtown
49.2793266,-123.1007929,Floata Seafood Restaurant,restaurant,food/drink,Downtown
49.2808178,-123.1312913,Care Point Medical Clinic,doctors,healthcare,West End
49.2037034,-123.1334192,,pub,food/drink,Marpole
49.204059,-123.1342853,Oriole Cafe,cafe,food/drink,Marpole
49.2041123,-123.1353971,Cafe de l'Orangerie,restaurant,food/drink,Marpole
49.2662923,-123.1395508,The Farmers Apprentice,restaurant,food/drink,Fairview
49.2705908,-123.1069257,TD Canada Trust,bank,money,Mount Pleasant
49.270909,-123.147638,Pane From Heaven,cafe,food/drink,Kitsilano
49.270789,-123.147699,The Smoking Dog French Bistro,restaurant,food/drink,Kitsilano
49.2063346,-123.1235828,Marpole Curling Club Cafe,cafe,food/drink,Marpole
49.230899,-123.0907977,Dairy Queen,fast_food,food/drink,Sunset
49.2592978,-123.0704729,Circus Play Cafe,cafe,food/drink,Kensington-Cedar Cottage
49.2642794,-123.0695069,Jamjar Folk Lebanese Food,restaurant,food/drink,Grandview-Woodland
49.2698377,-123.0694311,The Drive Pharmacy,pharmacy,healthcare,Grandview-Woodland
49.2603011,-123.0966837,12 Kings Pub,pub,food/drink,Mount Pleasant
49.2878856,-123.1184927,Chewies,restaurant,food/drink,Downtown
49.2859601,-123.1274065,Ebisu,restaurant,food/drink,West End
49.2836676,-123.1236177,Café Crêpe Express,cafe,food/drink,West End
49.2809013,-123.1322613,Mumbai Local,restaurant,food/drink,West End
49.263253,-123.1271262,A Taste of Vietnam,restaurant,food/drink,Fairview
49.2341725,-123.1401391,Hikari Cafe,restaurant,food/drink,Kerrisdale
49.267836,-123.145875,Mi Casa Mexicana,restaurant,food/drink,Kitsilano
49.2696735,-123.1459612,Subway,fast_food,food/drink,Kitsilano
49.2619003,-123.1383698,Starbucks,cafe,food/drink,Fairview
